{"bbox":[139.418835,36.38858,139.431052,36.408714],"type":"FeatureCollection","features":[{"geometry":{"type":"Point","coordinates":[139.421525,36.388581]},"properties":{"_iconUrl":"symbols/Parking_Area.png","_iconSize":[24,24],"駐車":"10台","_iconAnchor":[12,12],"name":"三和公民館"},"type":"Feature"},{"type":"Feature","properties":{"_iconSize":[24,24],"_iconUrl":"symbols/Pin_Green.png","name":"松田神社","_iconAnchor":[12,12]},"geometry":{"type":"Point","coordinates":[139.426411,36.396192]}},{"type":"Feature","geometry":{"type":"Point","coordinates":[139.431025,36.398492]},"properties":{"_iconSize":[24,24],"_iconUrl":"symbols/Pin_Green.png","name":"八雲神社","_iconAnchor":[12,12]}},{"properties":{"_iconAnchor":[12,12],"name":"わたごさま","_iconUrl":"symbols/Summit.png","_iconSize":[24,24]},"geometry":{"type":"Point","coordinates":[139.42965,36.398756]},"type":"Feature"},{"geometry":{"coordinates":[139.421267,36.402053],"type":"Point"},"properties":{"_iconAnchor":[12,12],"標高":"379m","name":"379m標高点","_iconUrl":"symbols/Summit.png","_iconSize":[24,24]},"type":"Feature"},{"geometry":{"type":"Point","coordinates":[139.420339,36.404681]},"properties":{"_iconSize":[24,24],"_iconUrl":"symbols/Short_Tower.png","name":"送電鉄塔","_iconAnchor":[12,12]},"type":"Feature"},{"type":"Feature","geometry":{"coordinates":[139.420181,36.405583],"type":"Point"},"properties":{"_iconSize":[24,24],"_iconUrl":"symbols/Pin_Green.png","name":"林道を横断","_iconAnchor":[12,12]}},{"geometry":{"coordinates":[139.421417,36.408653],"type":"Point"},"properties":{"点名":"松田","_iconAnchor":[12,12],"標高":"420m","name":"椿山","_iconUrl":"symbols/Summit.png","_iconSize":[24,24]},"type":"Feature"},{"properties":{"_iconUrl":"symbols/Pin_Green.png","_iconSize":[24,24],"_iconAnchor":[12,12],"name":"送電巡視路分岐"},"geometry":{"type":"Point","coordinates":[139.419097,36.401842]},"type":"Feature"},{"type":"Feature","geometry":{"type":"Point","coordinates":[139.419797,36.3928]},"properties":{"_iconUrl":"symbols/Summit.png","_iconSize":[24,24],"_iconAnchor":[12,12],"標高":"241m","name":"松田天神山"}},{"geometry":{"type":"Point","coordinates":[139.420861,36.389842]},"properties":{"_iconSize":[24,24],"_iconUrl":"symbols/Pin_Green.png","name":"神社跡","_iconAnchor":[12,12]},"type":"Feature"},{"geometry":{"type":"Point","coordinates":[139.421136,36.389214]},"properties":{"_iconSize":[24,24],"_iconUrl":"symbols/Pin_Green.png","name":"石鳥居","_iconAnchor":[12,12]},"type":"Feature"},{"type":"Feature","geometry":{"coordinates":[[139.421416,36.408652],[139.421431,36.408558],[139.421352,36.408714],[139.42141,36.408538],[139.420947,36.407891],[139.420919,36.407483],[139.420352,36.406661],[139.420476,36.40633],[139.420267,36.406065],[139.419831,36.405923],[139.419906,36.405723],[139.420133,36.405694],[139.420063,36.405145],[139.420486,36.404648],[139.420548,36.404381],[139.421204,36.403643],[139.421319,36.403335],[139.421174,36.402014],[139.420192,36.401795],[139.419819,36.401929],[139.419214,36.40172],[139.419097,36.401841],[139.418835,36.400996],[139.419083,36.400869],[139.419231,36.400362],[139.419086,36.399716],[139.419301,36.39833],[139.41975,36.397562],[139.419742,36.397189],[139.419972,36.396896],[139.42015,36.396262],[139.419967,36.396095],[139.419798,36.39515],[139.420013,36.394151],[139.419702,36.392651],[139.419869,36.392671],[139.419841,36.39285],[139.419783,36.392773],[139.419856,36.392914],[139.419781,36.39278],[139.419914,36.39257],[139.41957,36.392277],[139.419524,36.392046],[139.41926,36.391904],[139.419174,36.391379],[139.420587,36.390773],[139.420765,36.389975],[139.420939,36.389817],[139.42111,36.389224],[139.421296,36.389299],[139.420982,36.389078],[139.421111,36.38898],[139.421025,36.38879],[139.42157,36.388634]],"type":"LineString"},"properties":{"_dashArray":"3,6","_weight":3,"_color":"#0000ff","_opacity":0.5,"name":"わたごさま～椿山～松田天神山（復路）"}},{"geometry":{"type":"LineString","coordinates":[[139.421525,36.38858],[139.421378,36.388766],[139.421031,36.388845],[139.421107,36.388947],[139.420966,36.389128],[139.421111,36.389211],[139.420609,36.389378],[139.421074,36.389405],[139.421065,36.389315],[139.42129,36.389306],[139.422311,36.390971],[139.42291,36.391227],[139.423944,36.392219],[139.424116,36.392621],[139.425491,36.394209],[139.425396,36.394358],[139.425874,36.393798],[139.426501,36.394675],[139.426797,36.395699],[139.426338,36.396289],[139.426415,36.39635],[139.426307,36.396332],[139.426727,36.395771],[139.42727,36.396213],[139.428308,36.396333],[139.429104,36.396831],[139.428982,36.397132],[139.42932,36.397615],[139.429449,36.39757],[139.430223,36.398058],[139.430428,36.397937],[139.430631,36.398004],[139.431052,36.398634],[139.430323,36.398903],[139.430243,36.398415],[139.429898,36.398351],[139.429941,36.398285],[139.429866,36.398348],[139.430012,36.398514],[139.429757,36.398527],[139.429638,36.398714],[139.42973,36.398721],[139.429537,36.398716],[139.429561,36.398617],[139.42964,36.398735],[139.429534,36.398773],[139.429623,36.398796],[139.429011,36.398838],[139.42781,36.399393],[139.427156,36.39997],[139.426463,36.400207],[139.424769,36.400368],[139.423609,36.400721],[139.423322,36.4007],[139.422769,36.401182],[139.422061,36.401412],[139.421227,36.402108],[139.421372,36.403058],[139.421108,36.403783],[139.420508,36.404514],[139.420519,36.404674],[139.42034,36.404682],[139.420096,36.405036],[139.420066,36.405467],[139.420555,36.406003],[139.420361,36.406071],[139.420571,36.406291],[139.42039,36.406538],[139.420992,36.40748],[139.420961,36.407827],[139.42145,36.408515],[139.421397,36.408646]]},"properties":{"name":"わたごさま～椿山～松田天神山（往路）","_opacity":0.5,"_weight":3,"_color":"#ff0000","_dashArray":"3,6"},"type":"Feature"}]}
