{"features":[{"type":"Feature","geometry":{"type":"Point","coordinates":[139.662111,36.894294]},"properties":{"_iconAnchor":[12,12],"name":"小指バス停","_iconUrl":"symbols/Pin_Green.png","_iconSize":[24,24]}},{"properties":{"_iconSize":[24,24],"_iconUrl":"symbols/Pin_Green.png","name":"尾根取り付き","_iconAnchor":[12,12]},"geometry":{"type":"Point","coordinates":[139.671283,36.893967]},"type":"Feature"},{"type":"Feature","geometry":{"coordinates":[139.666156,36.900078],"type":"Point"},"properties":{"name":"石祠跡","_iconAnchor":[12,12],"_iconSize":[24,24],"_iconUrl":"symbols/Pin_Green.png"}},{"properties":{"点名":"鳥屋","_iconAnchor":[12,12],"標高":"1178m","name":"波遊山","_iconUrl":"symbols/Summit.png","俗称":"大鳥屋","_iconSize":[24,24]},"geometry":{"coordinates":[139.660606,36.903342],"type":"Point"},"type":"Feature"},{"type":"Feature","properties":{"_iconUrl":"symbols/Pin_Red.png","_iconSize":[24,24],"_iconAnchor":[12,12],"name":"小ギャップ"},"geometry":{"type":"Point","coordinates":[139.659369,36.909258]}},{"type":"Feature","geometry":{"coordinates":[139.659647,36.911089],"type":"Point"},"properties":{"_iconUrl":"symbols/Summit.png","_iconSize":[24,24],"_iconAnchor":[12,12],"標高":"1177m","name":"1177m標高点"}},{"geometry":{"type":"Point","coordinates":[139.659819,36.911825]},"properties":{"name":"主図根点標石","_iconAnchor":[12,12],"_iconSize":[24,24],"_iconUrl":"symbols/Pin_Green.png"},"type":"Feature"},{"properties":{"_iconUrl":"symbols/Pin_Green.png","_iconSize":[24,24],"_iconAnchor":[12,12],"name":"巻き道分岐"},"geometry":{"coordinates":[139.661728,36.914825],"type":"Point"},"type":"Feature"},{"geometry":{"type":"Point","coordinates":[139.667956,36.921383]},"properties":{"name":"石祠","_iconAnchor":[12,12],"_iconSize":[24,24],"_iconUrl":"symbols/Pin_Green.png"},"type":"Feature"},{"properties":{"_iconAnchor":[12,12],"標高":"1124m","name":"葛老山","_iconUrl":"symbols/Summit.png","_iconSize":[24,24]},"geometry":{"type":"Point","coordinates":[139.675239,36.921097]},"type":"Feature"},{"geometry":{"type":"Point","coordinates":[139.684122,36.925519]},"properties":{"_iconUrl":"symbols/Pin_Green.png","_iconSize":[24,24],"_iconAnchor":[12,12],"name":"第一休憩所"},"type":"Feature"},{"type":"Feature","properties":{"_iconSize":[24,24],"_iconUrl":"symbols/Short_Tower.png","name":"送電鉄塔","_iconAnchor":[12,12]},"geometry":{"coordinates":[139.685581,36.926333],"type":"Point"}},{"properties":{"_iconUrl":"symbols/Parking_Area.png","_iconSize":[24,24],"駐車":"50台","_iconAnchor":[12,12],"name":"道の駅湯西川"},"geometry":{"coordinates":[139.686506,36.929719],"type":"Point"},"type":"Feature"},{"type":"Feature","geometry":{"coordinates":[[139.66211,36.894293],[139.662202,36.894204],[139.665622,36.894333],[139.668529,36.89356],[139.671098,36.893918],[139.671484,36.894116],[139.671284,36.893966],[139.671247,36.894308],[139.670579,36.894568],[139.670021,36.895019],[139.669678,36.895132],[139.668651,36.895836],[139.668294,36.896301],[139.667227,36.896903],[139.667289,36.897512],[139.667637,36.898196],[139.667307,36.89891],[139.667468,36.89931],[139.667305,36.899524],[139.666876,36.899625],[139.666964,36.899588],[139.666764,36.899818],[139.66577,36.900172],[139.665349,36.900512],[139.664683,36.900747],[139.664544,36.900692],[139.663986,36.900912],[139.663391,36.90077],[139.662337,36.901019],[139.662344,36.901105],[139.661819,36.901014],[139.661516,36.90122],[139.661175,36.902715],[139.660954,36.903138],[139.660529,36.903388],[139.660737,36.903403],[139.660627,36.90338],[139.660695,36.903477],[139.660586,36.903409],[139.66068,36.903408],[139.660558,36.903411],[139.660604,36.903303],[139.660686,36.903813],[139.659929,36.904939],[139.659716,36.90592],[139.660027,36.906382],[139.659726,36.907101],[139.65983,36.907606],[139.659658,36.907944],[139.659637,36.908586],[139.659476,36.908738],[139.659346,36.909497],[139.659493,36.909484],[139.659712,36.909852],[139.659397,36.91051],[139.659741,36.911333],[139.660001,36.913067],[139.660416,36.913914],[139.660795,36.913987],[139.661894,36.914926],[139.661797,36.914986],[139.66216,36.9152],[139.662724,36.915326],[139.662903,36.915544],[139.662837,36.915936],[139.662746,36.915771],[139.662542,36.916258],[139.663475,36.916689],[139.663184,36.916689],[139.663657,36.916901],[139.664703,36.917856],[139.664665,36.918065],[139.664987,36.918701],[139.665452,36.918777],[139.665335,36.919254],[139.666226,36.920029],[139.666406,36.919986],[139.666079,36.920225],[139.665806,36.920804],[139.66603,36.921422],[139.66622,36.921553],[139.666965,36.921666],[139.667213,36.921509],[139.667955,36.921401],[139.668184,36.921125],[139.668586,36.920967],[139.668965,36.920511],[139.669759,36.920001],[139.670122,36.919922],[139.670462,36.91966],[139.670529,36.919362],[139.671685,36.91967],[139.672744,36.919796],[139.67327,36.920134],[139.673976,36.920355],[139.675448,36.921211],[139.67522,36.921123],[139.675881,36.921231],[139.676202,36.921113],[139.677993,36.921396],[139.678659,36.921358],[139.679319,36.921059],[139.679719,36.921045],[139.679344,36.921647],[139.680248,36.921707],[139.680346,36.921812],[139.680251,36.921929],[139.681957,36.921991],[139.681775,36.922074],[139.68186,36.922244],[139.68137,36.922285],[139.680841,36.922608],[139.680786,36.922759],[139.680969,36.922809],[139.680948,36.922952],[139.681182,36.922987],[139.681011,36.923078],[139.681498,36.923163],[139.68134,36.923311],[139.681541,36.923384],[139.682094,36.924079],[139.683133,36.92468],[139.683414,36.925068],[139.684827,36.925801],[139.685275,36.926278],[139.685637,36.926376],[139.685545,36.926385],[139.686438,36.926452],[139.686067,36.927057],[139.686544,36.927364],[139.686293,36.927373],[139.686252,36.92749],[139.68641,36.927579],[139.685731,36.927587],[139.686002,36.927915],[139.685784,36.927861],[139.68563,36.928016],[139.686186,36.928368],[139.686467,36.928396],[139.686505,36.928665],[139.68683,36.928923],[139.687134,36.928946],[139.687083,36.929309],[139.686909,36.929238],[139.686596,36.92935],[139.686815,36.929689],[139.686693,36.92978],[139.686506,36.92972]],"type":"LineString"},"properties":{"name":"波遊山～葛老山","_opacity":0.5,"_color":"#ff0000","_weight":3,"_dashArray":"3,6"}}],"bbox":[139.659346,36.89356,139.687134,36.92978],"type":"FeatureCollection"}
