{"bbox":[138.995017,35.984057,139.018735,35.996552],"features":[{"type":"Feature","properties":{"_iconAnchor":[12,12],"_iconUrl":"symbols/Parking_Area.png","駐車":"20台","name":"法性寺駐車場","_iconSize":[24,24]},"geometry":{"coordinates":[139.014736,35.995839],"type":"Point"}},{"properties":{"_iconSize":[24,24],"name":"法性寺観音堂","_iconAnchor":[12,12],"_iconUrl":"symbols/Pin_Green.png"},"type":"Feature","geometry":{"coordinates":[139.012,35.996358],"type":"Point"}},{"type":"Feature","properties":{"_iconSize":[24,24],"name":"龍虎岩","_iconAnchor":[12,12],"_iconUrl":"symbols/Pin_Green.png"},"geometry":{"type":"Point","coordinates":[139.011242,35.995411]}},{"type":"Feature","properties":{"_iconSize":[24,24],"name":"お船観音","_iconAnchor":[12,12],"_iconUrl":"symbols/Scenic_Area.png"},"geometry":{"type":"Point","coordinates":[139.010769,35.995303]}},{"geometry":{"coordinates":[139.010022,35.994228],"type":"Point"},"properties":{"name":"大日如来","_iconSize":[24,24],"_iconUrl":"symbols/Scenic_Area.png","_iconAnchor":[12,12]},"type":"Feature"},{"geometry":{"coordinates":[139.008703,35.993308],"type":"Point"},"properties":{"name":"送電鉄塔","_iconSize":[24,24],"_iconUrl":"symbols/Short_Tower.png","_iconAnchor":[12,12]},"type":"Feature"},{"type":"Feature","properties":{"_iconAnchor":[12,12],"_iconUrl":"symbols/Short_Tower.png","_iconSize":[24,24],"name":"送電鉄塔"},"geometry":{"coordinates":[139.009267,35.992169],"type":"Point"}},{"properties":{"_iconUrl":"symbols/Scenic_Area.png","_iconAnchor":[12,12],"name":"亀ヶ岳展望所","_iconSize":[24,24]},"type":"Feature","geometry":{"coordinates":[139.011269,35.991167],"type":"Point"}},{"properties":{"name":"雨乞岩洞穴","_iconSize":[24,24],"_iconUrl":"symbols/Pin_Green.png","_iconAnchor":[12,12]},"type":"Feature","geometry":{"coordinates":[139.013089,35.990811],"type":"Point"}},{"geometry":{"coordinates":[139.010025,35.989147],"type":"Point"},"type":"Feature","properties":{"name":"一ノ峰","_iconSize":[24,24],"_iconUrl":"symbols/Pin_Green.png","_iconAnchor":[12,12]}},{"geometry":{"coordinates":[139.008711,35.988883],"type":"Point"},"properties":{"_iconAnchor":[12,12],"_iconUrl":"symbols/Summit.png","name":"二ノ峰","_iconSize":[24,24]},"type":"Feature"},{"type":"Feature","properties":{"_iconAnchor":[12,12],"_iconUrl":"symbols/Summit.png","name":"三ノ峰","_iconSize":[24,24]},"geometry":{"type":"Point","coordinates":[139.006892,35.988789]}},{"geometry":{"coordinates":[139.005931,35.989142],"type":"Point"},"type":"Feature","properties":{"name":"四ノ峰","_iconSize":[24,24],"_iconAnchor":[12,12],"_iconUrl":"symbols/Summit.png"}},{"geometry":{"coordinates":[139.003081,35.989872],"type":"Point"},"type":"Feature","properties":{"_iconUrl":"symbols/Pin_Green.png","_iconAnchor":[12,12],"_iconSize":[24,24],"name":"五ノ峰"}},{"geometry":{"type":"Point","coordinates":[139.001889,35.990422]},"properties":{"_iconAnchor":[12,12],"_iconUrl":"symbols/Summit.png","name":"565標高点","_iconSize":[24,24]},"type":"Feature"},{"geometry":{"type":"Point","coordinates":[138.999461,35.989372]},"properties":{"_iconUrl":"symbols/Pin_Green.png","_iconAnchor":[12,12],"_iconSize":[24,24],"name":"布沢峠"},"type":"Feature"},{"geometry":{"coordinates":[138.996914,35.989019],"type":"Point"},"type":"Feature","properties":{"_iconSize":[24,24],"name":"昼食地点","_iconAnchor":[12,12],"_iconUrl":"symbols/Pin_Green.png"}},{"geometry":{"coordinates":[138.996528,35.987772],"type":"Point"},"properties":{"_iconSize":[24,24],"name":"石祠","_iconUrl":"symbols/Pin_Green.png","_iconAnchor":[12,12]},"type":"Feature"},{"type":"Feature","properties":{"_iconUrl":"symbols/Pin_Green.png","_iconAnchor":[12,12],"_iconSize":[24,24],"name":"モミの巨木"},"geometry":{"coordinates":[138.996744,35.986739],"type":"Point"}},{"properties":{"_iconAnchor":[12,12],"_iconUrl":"symbols/Summit.png","_iconSize":[24,24],"name":"中ノ沢ノ頭"},"type":"Feature","geometry":{"type":"Point","coordinates":[138.996864,35.985625]}},{"geometry":{"type":"Point","coordinates":[138.99565,35.984175]},"type":"Feature","properties":{"name":"文殊峠","_iconSize":[24,24],"_iconAnchor":[12,12],"_iconUrl":"symbols/Pin_Green.png"}},{"type":"Feature","properties":{"_iconAnchor":[12,12],"_iconUrl":"symbols/Scenic_Area.png","name":"長若天体観測所","_iconSize":[24,24]},"geometry":{"coordinates":[138.995017,35.9841],"type":"Point"}},{"properties":{"_iconAnchor":[12,12],"_iconUrl":"symbols/Summit.png","標高":"539m","name":"竜神山","_iconSize":[24,24]},"type":"Feature","geometry":{"type":"Point","coordinates":[139.001539,35.985647]}},{"geometry":{"coordinates":[139.004997,35.986161],"type":"Point"},"type":"Feature","properties":{"name":"送電鉄塔跡","_iconSize":[24,24],"_iconUrl":"symbols/Pin_Green.png","_iconAnchor":[12,12]}},{"geometry":{"type":"Point","coordinates":[139.0061,35.985914]},"type":"Feature","properties":{"_iconAnchor":[12,12],"_iconUrl":"symbols/Pin_Green.png","name":"賽ノ洞窟","_iconSize":[24,24]}},{"geometry":{"type":"Point","coordinates":[139.008175,35.985256]},"type":"Feature","properties":{"_iconAnchor":[12,12],"_iconUrl":"symbols/Scenic_Area.png","name":"兎岩","_iconSize":[24,24]}},{"properties":{"_iconAnchor":[12,12],"_iconUrl":"symbols/Pin_Green.png","_iconSize":[24,24],"name":"文殊峠登山口"},"type":"Feature","geometry":{"type":"Point","coordinates":[139.009983,35.984206]}},{"type":"Feature","properties":{"_iconAnchor":[12,12],"_iconUrl":"symbols/Pin_Green.png","name":"釜ノ沢五峰登山口","_iconSize":[24,24]},"geometry":{"coordinates":[139.014814,35.989964],"type":"Point"}},{"geometry":{"coordinates":[[138.995018,35.984099],[138.995192,35.984108],[138.995092,35.984096],[138.995066,35.984181],[138.995057,35.984086],[138.995488,35.984087],[138.995439,35.984119],[138.995729,35.984161],[138.995899,35.984442],[138.996257,35.984689],[138.996351,35.98505],[138.996838,35.985536],[138.998301,35.985743],[138.998639,35.985594],[138.998988,35.985562],[138.999794,35.985706],[139.00089,35.985781],[139.001539,35.985647],[139.001945,35.985949],[139.002191,35.985892],[139.002647,35.985975],[139.002988,35.98591],[139.003553,35.986091],[139.00397,35.98614],[139.004148,35.986056],[139.005052,35.986158],[139.005754,35.985901],[139.006027,35.985984],[139.006108,35.985944],[139.006145,35.985599],[139.006311,35.985456],[139.006522,35.985485],[139.006613,35.985418],[139.007011,35.985381],[139.007184,35.985173],[139.007516,35.985064],[139.007838,35.985052],[139.008531,35.985453],[139.008637,35.985412],[139.008624,35.985205],[139.00909,35.98496],[139.009193,35.985055],[139.009173,35.984748],[139.009031,35.984618],[139.009284,35.984304],[139.009484,35.984333],[139.009488,35.984234],[139.009791,35.984137],[139.010028,35.984225],[139.01017,35.984906],[139.01016,35.985687],[139.010351,35.986263],[139.010555,35.986339],[139.010526,35.986425],[139.010634,35.986359],[139.011941,35.98654],[139.012539,35.98653],[139.013299,35.986669],[139.013872,35.987009],[139.014433,35.988679],[139.014604,35.988751],[139.014728,35.988937],[139.014785,35.989996],[139.015021,35.99013],[139.015547,35.990787],[139.015549,35.99145],[139.015891,35.991749],[139.016129,35.992297],[139.016658,35.992654],[139.017986,35.994635],[139.018735,35.994975],[139.017655,35.995318],[139.016995,35.995253],[139.016375,35.995521],[139.01549,35.995569],[139.014815,35.995847]],"type":"LineString"},"properties":{"_weight":3,"_dashArray":"3,6","_color":"#0000ff","_opacity":0.5,"name":"釜ノ沢五峰（復路）"},"type":"Feature"},{"type":"Feature","properties":{"_weight":3,"_dashArray":"3,6","_color":"#ff0000","_opacity":0.5,"name":"釜ノ沢五峰（往路）"},"geometry":{"coordinates":[[139.014737,35.99584],[139.014509,35.9959],[139.013644,35.996535],[139.012992,35.99654],[139.01305,35.996552],[139.012477,35.996461],[139.012279,35.996358],[139.01231,35.996316],[139.012,35.996359],[139.012045,35.996443],[139.012166,35.996331],[139.012145,35.996201],[139.0117,35.995879],[139.011578,35.995877],[139.011483,35.995713],[139.011159,35.995478],[139.011319,35.995392],[139.011166,35.995517],[139.011185,35.995263],[139.011055,35.994846],[139.010534,35.994405],[139.010318,35.994485],[139.010512,35.994539],[139.010362,35.994612],[139.010374,35.994883],[139.010795,35.995221],[139.010772,35.995303],[139.010706,35.995216],[139.010735,35.995293],[139.010754,35.995117],[139.01033,35.994493],[139.010227,35.994723],[139.010006,35.994207],[139.010092,35.994362],[139.010262,35.994082],[139.010016,35.994048],[139.009966,35.993897],[139.00945,35.993522],[139.008886,35.993414],[139.008702,35.993309],[139.008657,35.993123],[139.008809,35.992933],[139.008785,35.992705],[139.008557,35.992618],[139.008635,35.992582],[139.008551,35.992449],[139.008593,35.992352],[139.009166,35.992267],[139.009237,35.992178],[139.009795,35.992175],[139.009797,35.992048],[139.00991,35.991981],[139.009852,35.991988],[139.010064,35.991732],[139.010387,35.991689],[139.010258,35.991554],[139.010357,35.991447],[139.010342,35.99127],[139.01125,35.991169],[139.012214,35.991169],[139.012365,35.991232],[139.012845,35.991175],[139.01333,35.99081],[139.01309,35.990811],[139.013792,35.990678],[139.014082,35.990766],[139.014396,35.990305],[139.014316,35.990174],[139.014054,35.990047],[139.013451,35.989977],[139.013077,35.990038],[139.013058,35.989867],[139.012677,35.989848],[139.01239,35.989741],[139.012323,35.989851],[139.011958,35.989505],[139.011523,35.989383],[139.011321,35.989214],[139.01103,35.989246],[139.010896,35.989126],[139.010759,35.989172],[139.010815,35.989377],[139.010735,35.9895],[139.010081,35.989274],[139.009633,35.988843],[139.009248,35.988859],[139.009017,35.988974],[139.008686,35.988847],[139.008704,35.988896],[139.008274,35.988714],[139.007952,35.988785],[139.00758,35.988695],[139.007356,35.988865],[139.007296,35.988795],[139.006859,35.988787],[139.006989,35.988793],[139.006923,35.988912],[139.006798,35.988866],[139.006941,35.988944],[139.006799,35.988978],[139.006648,35.988859],[139.006081,35.989157],[139.005916,35.989136],[139.00516,35.989383],[139.00496,35.989651],[139.004628,35.98962],[139.003649,35.98973],[139.003432,35.989938],[139.003141,35.989868],[139.00281,35.989972],[139.002064,35.990398],[139.001291,35.990439],[139.000859,35.990213],[139.00092,35.990198],[139.00052,35.990001],[138.999826,35.989888],[138.99943,35.989302],[138.998462,35.989216],[138.998254,35.98911],[138.99686,35.989026],[138.996936,35.988988],[138.996819,35.988997],[138.996824,35.989066],[138.996878,35.989002],[138.996779,35.989062],[138.996908,35.989126],[138.99686,35.989063],[138.996869,35.989112],[138.996862,35.989048],[138.996838,35.98911],[138.996824,35.989014],[138.996844,35.989063],[138.996932,35.989014],[138.996842,35.988993],[138.996835,35.98905],[138.99671,35.988795],[138.996738,35.988448],[138.996457,35.98811],[138.996491,35.98779],[138.996583,35.987694],[138.996636,35.987197],[138.996779,35.987056],[138.996741,35.98669],[138.996569,35.986587],[138.996683,35.985979],[138.996889,35.985619],[138.99628,35.984941],[138.996269,35.984719],[138.995829,35.984378],[138.995731,35.984057],[138.995707,35.984164],[138.995168,35.984106],[138.995044,35.984168]],"type":"LineString"}}],"type":"FeatureCollection"}
