{"type":"FeatureCollection","bbox":[140.558772,36.705702,140.562915,36.712796],"features":[{"type":"Feature","geometry":{"coordinates":[[140.558809,36.705835],[140.559018,36.705872],[140.558957,36.705954],[140.558903,36.705849],[140.558806,36.705866],[140.558806,36.705775],[140.558772,36.705965],[140.559087,36.706259],[140.559257,36.706238],[140.559255,36.706172],[140.559383,36.706681],[140.559563,36.707009],[140.560161,36.707627],[140.560262,36.707634],[140.560281,36.707849],[140.56044,36.708059],[140.560164,36.70878],[140.560293,36.708919],[140.560252,36.709078],[140.560421,36.709112],[140.560332,36.709293],[140.560162,36.7093],[140.559927,36.709452],[140.559975,36.709372],[140.560058,36.709516],[140.559847,36.709621],[140.559911,36.709693],[140.559723,36.709906],[140.559471,36.709822],[140.559268,36.709966],[140.559225,36.710774],[140.559911,36.711312],[140.559901,36.711474],[140.559818,36.711525],[140.560164,36.71151],[140.560119,36.711585],[140.56069,36.71129],[140.56049,36.71093],[140.560383,36.710914],[140.560517,36.710585],[140.560652,36.710738],[140.560657,36.710644],[140.56055,36.71061],[140.560538,36.710786],[140.560477,36.710752],[140.561216,36.710938],[140.561257,36.710879],[140.561616,36.710941],[140.562057,36.710898],[140.562224,36.710788]],"type":"LineString"},"properties":{"_opacity":0.5,"_dashArray":"3,6","_weight":3,"_color":"#ff0000"}},{"type":"Feature","geometry":{"coordinates":[[140.562248,36.71078],[140.562295,36.710812],[140.562307,36.710703],[140.562256,36.710806],[140.562413,36.710781],[140.562379,36.710712],[140.562334,36.710783],[140.562418,36.710832],[140.562428,36.710757],[140.56236,36.710821],[140.562404,36.710785],[140.562277,36.710846],[140.562314,36.710774],[140.5628,36.710718],[140.562636,36.710357],[140.562722,36.710544],[140.562915,36.710683],[140.56262,36.7107],[140.562552,36.710779],[140.561995,36.710852],[140.561562,36.710669],[140.560441,36.710497],[140.560712,36.71072],[140.560463,36.710723],[140.560424,36.710783],[140.560655,36.71122],[140.56052,36.711282],[140.560443,36.71152],[140.560541,36.71245],[140.56037,36.712577],[140.560105,36.712621],[140.560166,36.712714],[140.560088,36.712774],[140.56014,36.712737],[140.560138,36.712796],[140.560178,36.712517],[140.560099,36.712395],[140.56004,36.711707],[140.560116,36.711552],[140.559271,36.710959],[140.559171,36.710723],[140.559228,36.71001],[140.559378,36.709876],[140.559604,36.709861],[140.559754,36.709736],[140.559847,36.709388],[140.560054,36.709267],[140.560211,36.709232],[140.560266,36.709055],[140.560154,36.708872],[140.56026,36.70825],[140.560372,36.708139],[140.560169,36.707655],[140.559358,36.706986],[140.559185,36.706357],[140.559014,36.706238],[140.55884,36.705938],[140.558876,36.705702],[140.558867,36.705757]],"type":"LineString"},"properties":{"_opacity":0.5,"_dashArray":"3,6","_color":"#0000ff","_weight":3}},{"properties":{"_iconUrl":"symbols/Pin_Green.png","_iconSize":[24,24],"_iconAnchor":[12,12],"name":"烏帽子石"},"geometry":{"coordinates":[140.560253,36.709078],"type":"Point"},"type":"Feature"},{"type":"Feature","properties":{"_iconSize":[24,24],"_iconUrl":"symbols/Pin_Green.png","name":"黒前神社","_iconAnchor":[12,12]},"geometry":{"type":"Point","coordinates":[140.561367,36.710872]}},{"properties":{"_iconUrl":"symbols/Pin_Green.png","_iconSize":[24,24],"_iconAnchor":[12,12],"name":"釈迦堂"},"geometry":{"coordinates":[140.560539,36.710758],"type":"Point"},"type":"Feature"},{"properties":{"_iconUrl":"symbols/Pin_Green.png","_iconSize":[24,24],"_iconAnchor":[12,12],"name":"畳石"},"geometry":{"type":"Point","coordinates":[140.559928,36.709453]},"type":"Feature"},{"type":"Feature","geometry":{"type":"Point","coordinates":[140.560089,36.712775]},"properties":{"_iconAnchor":[12,12],"name":"太刀割石","_iconUrl":"symbols/Scenic_Area.png","_iconSize":[24,24]}},{"type":"Feature","properties":{"_iconSize":[24,24],"_iconUrl":"symbols/Pin_Green.png","name":"胎内石","_iconAnchor":[12,12]},"geometry":{"coordinates":[140.562636,36.710358],"type":"Point"}},{"geometry":{"coordinates":[140.562225,36.710789],"type":"Point"},"properties":{"_iconAnchor":[12,12],"標高":"658m","name":"竪破山","_iconUrl":"symbols/Summit.png","_iconSize":[24,24]},"type":"Feature"},{"type":"Feature","geometry":{"type":"Point","coordinates":[140.558808,36.705836]},"properties":{"_iconUrl":"symbols/Parking_Area.png","_iconSize":[24,24],"駐車":"10台","_iconAnchor":[12,12],"name":"駐車場"}},{"type":"Feature","properties":{"_iconSize":[24,24],"_iconUrl":"symbols/Pin_Green.png","name":"不動石","_iconAnchor":[12,12]},"geometry":{"type":"Point","coordinates":[140.560261,36.707633]}},{"type":"Feature","geometry":{"type":"Point","coordinates":[140.559853,36.711536]},"properties":{"_iconSize":[24,24],"_iconUrl":"symbols/Pin_Green.png","name":"弁天池","_iconAnchor":[12,12]}}]}
