{"features":[{"geometry":{"coordinates":[139.505586,36.321133],"type":"Point"},"properties":{"_iconAnchor":[12,12],"標高":"139m","name":"玄藩山","_iconUrl":"symbols/Summit.png","_iconSize":[24,24]},"type":"Feature"},{"type":"Feature","properties":{"_iconSize":[24,24],"_iconUrl":"symbols/Summit.png","name":"三足富士","_iconAnchor":[12,12]},"geometry":{"coordinates":[139.511867,36.322339],"type":"Point"}},{"geometry":{"type":"Point","coordinates":[139.513139,36.323772]},"properties":{"_iconUrl":"symbols/Summit.png","_iconSize":[24,24],"_iconAnchor":[12,12],"name":"新田山","標高":"198m"},"type":"Feature"},{"type":"Feature","properties":{"_iconAnchor":[12,12],"name":"阿夫利神社分岐","_iconUrl":"symbols/Scenic_Area.png","_iconSize":[24,24]},"geometry":{"coordinates":[139.517544,36.328178],"type":"Point"}},{"geometry":{"type":"Point","coordinates":[139.516136,36.330778]},"properties":{"_iconSize":[24,24],"_iconUrl":"symbols/Scenic_Area.png","name":"山百合学園分岐","_iconAnchor":[12,12]},"type":"Feature"},{"properties":{"name":"見晴台分岐","_iconAnchor":[12,12],"_iconSize":[24,24],"_iconUrl":"symbols/Pin_Green.png"},"geometry":{"coordinates":[139.516825,36.331542],"type":"Point"},"type":"Feature"},{"type":"Feature","properties":{"_iconAnchor":[12,12],"name":"大小山","標高":"282m","_iconUrl":"symbols/Summit.png","_iconSize":[24,24]},"geometry":{"type":"Point","coordinates":[139.517206,36.332164]}},{"type":"Feature","properties":{"_iconAnchor":[12,12],"標高":"314m","name":"妙義山","_iconUrl":"symbols/Summit.png","_iconSize":[24,24]},"geometry":{"coordinates":[139.51715,36.333481],"type":"Point"}},{"properties":{"_iconAnchor":[12,12],"name":"山百合学園分岐","_iconUrl":"symbols/Pin_Green.png","_iconSize":[24,24]},"geometry":{"type":"Point","coordinates":[139.513853,36.335364]},"type":"Feature"},{"geometry":{"type":"Point","coordinates":[139.513978,36.336375]},"properties":{"_iconSize":[24,24],"_iconUrl":"symbols/Summit.png","name":"毛野山","_iconAnchor":[12,12]},"type":"Feature"},{"type":"Feature","properties":{"_iconUrl":"symbols/Pin_Green.png","_iconSize":[24,24],"_iconAnchor":[12,12],"name":"がま岩"},"geometry":{"coordinates":[139.513047,36.336572],"type":"Point"}},{"properties":{"name":"あいの山","_iconAnchor":[12,12],"_iconSize":[24,24],"_iconUrl":"symbols/Summit.png"},"geometry":{"coordinates":[139.511689,36.337928],"type":"Point"},"type":"Feature"},{"geometry":{"coordinates":[139.509528,36.341789],"type":"Point"},"properties":{"_iconSize":[24,24],"_iconUrl":"symbols/Summit.png","name":"越床山","_iconAnchor":[12,12]},"type":"Feature"},{"type":"Feature","properties":{"_iconSize":[24,24],"_iconUrl":"symbols/Pin_Green.png","name":"越床峠","_iconAnchor":[12,12]},"geometry":{"coordinates":[139.505744,36.342128],"type":"Point"}},{"type":"Feature","properties":{"_iconUrl":"symbols/Scenic_Area.png","_iconSize":[24,24],"_iconAnchor":[12,12],"name":"山頂番屋"},"geometry":{"coordinates":[139.502858,36.343739],"type":"Point"}},{"type":"Feature","geometry":{"type":"Point","coordinates":[139.501494,36.343764]},"properties":{"_iconAnchor":[12,12],"name":"足利鉱山","_iconUrl":"symbols/Summit.png","_iconSize":[24,24]}},{"type":"Feature","geometry":{"coordinates":[139.497106,36.339822],"type":"Point"},"properties":{"_iconAnchor":[12,12],"name":"つつじ山","_iconUrl":"symbols/Summit.png","_iconSize":[24,24]}},{"geometry":{"type":"Point","coordinates":[139.498556,36.336894]},"properties":{"_iconAnchor":[12,12],"name":"大坊山","標高":"286m","_iconUrl":"symbols/Summit.png","_iconSize":[24,24]},"type":"Feature"},{"type":"Feature","geometry":{"type":"Point","coordinates":[139.497544,36.332536]},"properties":{"_iconUrl":"symbols/Pin_Green.png","_iconSize":[24,24],"_iconAnchor":[12,12],"name":"大山祇神社"}},{"type":"Feature","geometry":{"coordinates":[139.504008,36.316961],"type":"Point"},"properties":{"name":"日光鹿島神社","_iconAnchor":[12,12],"_iconSize":[24,24],"_iconUrl":"symbols/Pin_Green.png"}},{"type":"Feature","properties":{"_opacity":0.5,"name":"大坊山～大小山～玄蕃山（復路）","_dashArray":"3,6","_weight":3,"_color":"#0000ff"},"geometry":{"type":"LineString","coordinates":[[139.517149,36.33348],[139.517101,36.332818],[139.517262,36.332134],[139.516824,36.331542],[139.516569,36.331428],[139.516039,36.330707],[139.516354,36.330589],[139.516965,36.330052],[139.516852,36.329617],[139.517117,36.328634],[139.517604,36.328158],[139.517344,36.327336],[139.516393,36.326585],[139.515128,36.325239],[139.514857,36.324488],[139.513496,36.323812],[139.513159,36.323796],[139.512912,36.32327],[139.51201,36.322613],[139.511648,36.322138],[139.510769,36.32237],[139.510325,36.322611],[139.509686,36.322748],[139.508399,36.32271],[139.507857,36.322464],[139.506846,36.322308],[139.506064,36.321949],[139.505657,36.321107],[139.504256,36.321094],[139.503581,36.321439],[139.503009,36.321579],[139.501993,36.321383],[139.501042,36.320437],[139.500665,36.320782],[139.499986,36.320829],[139.499716,36.320208],[139.49991,36.320184],[139.499942,36.320024],[139.49964,36.319694],[139.498915,36.319541],[139.499718,36.316885],[139.500369,36.316578],[139.500657,36.316301],[139.501064,36.316133],[139.503449,36.316107],[139.504071,36.316848]]}},{"properties":{"_opacity":0.5,"name":"大坊山～大小山～玄藩山（往路）","_color":"#ff0000","_weight":3,"_dashArray":"3,6"},"geometry":{"coordinates":[[139.504008,36.316962],[139.50399,36.316678],[139.503595,36.316111],[139.501187,36.316119],[139.500517,36.316347],[139.500379,36.316538],[139.499688,36.316917],[139.498479,36.321106],[139.49813,36.321454],[139.499338,36.324186],[139.499284,36.324392],[139.49753,36.324938],[139.497768,36.325952],[139.497099,36.326791],[139.496888,36.327321],[139.496966,36.327445],[139.496567,36.328074],[139.496996,36.329192],[139.497149,36.32925],[139.497273,36.329603],[139.497169,36.329881],[139.497898,36.330598],[139.498095,36.330999],[139.497995,36.331113],[139.49749,36.330803],[139.497329,36.330865],[139.49783,36.331785],[139.497676,36.332259],[139.497774,36.332241],[139.497663,36.332183],[139.4975,36.332655],[139.497642,36.332666],[139.497141,36.332658],[139.497543,36.332567],[139.497909,36.333079],[139.497863,36.333906],[139.497583,36.333991],[139.497254,36.333799],[139.497274,36.334683],[139.497618,36.334886],[139.498182,36.335502],[139.498193,36.335859],[139.498698,36.336853],[139.498548,36.336921],[139.498674,36.336819],[139.498715,36.336937],[139.498617,36.336898],[139.498067,36.337729],[139.497685,36.337941],[139.496961,36.338953],[139.496861,36.339429],[139.497138,36.340084],[139.497586,36.340655],[139.498363,36.341119],[139.498804,36.341624],[139.499311,36.341879],[139.499996,36.342531],[139.5004,36.342591],[139.500908,36.34293],[139.501525,36.34378],[139.502236,36.34411],[139.502693,36.343417],[139.50284,36.343471],[139.50288,36.343785],[139.502808,36.343703],[139.502896,36.34379],[139.502833,36.343593],[139.502833,36.343688],[139.503001,36.343308],[139.504086,36.342824],[139.504498,36.342463],[139.505692,36.342105],[139.505873,36.342188],[139.507027,36.342153],[139.50748,36.341947],[139.508425,36.341807],[139.50955,36.341809],[139.509702,36.341233],[139.509601,36.340994],[139.50972,36.340553],[139.510439,36.339386],[139.510491,36.338607],[139.511435,36.337978],[139.511707,36.33792],[139.512139,36.337227],[139.513032,36.336539],[139.513982,36.33642],[139.513854,36.335365],[139.514489,36.334254],[139.514932,36.333982],[139.515882,36.333879],[139.517126,36.333506]],"type":"LineString"},"type":"Feature"}],"bbox":[139.496567,36.316107,139.517604,36.34411],"type":"FeatureCollection"}
