{"bbox":[138.791455,36.548571,138.820851,36.571372],"type":"FeatureCollection","features":[{"geometry":{"coordinates":[[138.801231,36.548643],[138.801205,36.548715],[138.801337,36.548571],[138.801863,36.548592],[138.801968,36.548744],[138.801878,36.549448],[138.800755,36.549554],[138.80008,36.549475],[138.799508,36.549854],[138.798999,36.550414],[138.7982,36.551022],[138.797766,36.551151],[138.796611,36.551737],[138.796218,36.551848],[138.794954,36.551889],[138.794602,36.552085],[138.794365,36.551722],[138.794022,36.55151],[138.793895,36.551559],[138.793322,36.552285],[138.793511,36.55265],[138.793469,36.552619],[138.793533,36.552654],[138.792886,36.553174],[138.79241,36.55342],[138.792559,36.553598],[138.792603,36.554189],[138.792444,36.554434],[138.791455,36.555012],[138.791614,36.555329],[138.792381,36.555555],[138.792455,36.556053],[138.793183,36.556385],[138.793669,36.556267],[138.793682,36.556211],[138.793804,36.556264],[138.793969,36.556221],[138.793851,36.55666],[138.79395,36.55694],[138.794108,36.557067],[138.794028,36.557082],[138.794043,36.557168],[138.793929,36.557244],[138.794401,36.557645],[138.794498,36.557837],[138.79474,36.557998],[138.795037,36.557693],[138.794929,36.557637],[138.79499,36.557619],[138.794886,36.557525],[138.795069,36.557166],[138.795896,36.557061],[138.795877,36.556959],[138.796275,36.556854],[138.796399,36.556953],[138.796344,36.557081],[138.796181,36.556921],[138.796247,36.557036],[138.79675,36.557278],[138.796792,36.557496],[138.796853,36.557429],[138.796932,36.557534],[138.797166,36.557606],[138.797295,36.557739],[138.797495,36.557663],[138.797367,36.557536],[138.797465,36.557295],[138.798231,36.557071],[138.79842,36.557157],[138.798487,36.557121],[138.798509,36.55721],[138.798953,36.557092],[138.799572,36.557044],[138.799719,36.557169],[138.79953,36.557103],[138.799713,36.556967],[138.79998,36.557005],[138.800068,36.557087],[138.800087,36.557282],[138.800188,36.557331],[138.800315,36.557593],[138.8005,36.557687],[138.801169,36.557807],[138.801232,36.557924],[138.80157,36.557922],[138.801987,36.558393],[138.802477,36.558474],[138.802545,36.558569],[138.802771,36.558616],[138.802991,36.558968],[138.803292,36.559012],[138.803433,36.558929],[138.804361,36.559405],[138.804383,36.559336],[138.804457,36.559406],[138.80476,36.559287],[138.804904,36.559408],[138.805226,36.558953],[138.805357,36.559033],[138.806023,36.559085],[138.806633,36.558893],[138.806788,36.558962],[138.806924,36.559168],[138.806936,36.559823],[138.80665,36.560016],[138.806339,36.560743],[138.805907,36.560915],[138.806365,36.561051],[138.806405,36.561],[138.806403,36.561067],[138.806791,36.561077],[138.806849,36.561259],[138.806785,36.561126],[138.807062,36.561423],[138.807374,36.561433],[138.807639,36.561916],[138.808319,36.562526],[138.808199,36.562738],[138.808286,36.562555],[138.808941,36.562652],[138.809052,36.562185],[138.809175,36.562074],[138.809395,36.562083],[138.811393,36.562782],[138.811808,36.563012],[138.811938,36.563166],[138.812074,36.563903],[138.812233,36.564027],[138.813783,36.564015],[138.813998,36.564105],[138.814444,36.56458],[138.814779,36.564724],[138.815471,36.565437],[138.815685,36.565767],[138.816128,36.566002],[138.816228,36.566182],[138.81656,36.566403],[138.816741,36.566417],[138.816829,36.566303],[138.817857,36.566367],[138.818289,36.566619],[138.818556,36.567318],[138.818468,36.567495],[138.818253,36.567547],[138.818388,36.567545],[138.818195,36.567666],[138.818522,36.568022],[138.818615,36.568476],[138.81882,36.568629],[138.819157,36.569221],[138.819549,36.570216],[138.820116,36.570619],[138.820578,36.570814],[138.820851,36.571071],[138.820807,36.571372],[138.820662,36.57106],[138.820595,36.571134]],"type":"LineString"},"properties":{"_dashArray":"3,6","_color":"#ff0000","_weight":3,"_opacity":0.5},"type":"Feature"},{"type":"Feature","properties":{"_iconSize":[24,24],"_iconUrl":"symbols/Pin_Green.png","name":"岩櫃城温泉","_iconAnchor":[12,12]},"geometry":{"coordinates":[138.820594,36.571133],"type":"Point"}},{"properties":{"_iconAnchor":[12,12],"name":"番匠坂","_iconUrl":"symbols/Pin_Green.png","_iconSize":[24,24]},"geometry":{"coordinates":[138.818289,36.566619],"type":"Point"},"type":"Feature"},{"geometry":{"type":"Point","coordinates":[138.813611,36.564003]},"properties":{"_iconSize":[24,24],"_iconUrl":"symbols/Pin_Green.png","name":"東の木戸跡","_iconAnchor":[12,12]},"type":"Feature"},{"geometry":{"coordinates":[138.8082,36.562739],"type":"Point"},"properties":{"_iconSize":[24,24],"_iconUrl":"symbols/Pin_Green.png","name":"岩櫃神社","_iconAnchor":[12,12]},"type":"Feature"},{"properties":{"_iconAnchor":[12,12],"駐車":"5台","name":"一本松登山口","_iconUrl":"symbols/Parking_Area.png","_iconSize":[24,24]},"geometry":{"type":"Point","coordinates":[138.806514,36.561111]},"type":"Feature"},{"type":"Feature","properties":{"name":"岩櫃城本丸址","_iconAnchor":[12,12],"_iconSize":[24,24],"_iconUrl":"symbols/Pin_Green.png"},"geometry":{"coordinates":[138.804361,36.559406],"type":"Point"}},{"type":"Feature","properties":{"_iconAnchor":[12,12],"name":"天狗岩","_iconUrl":"symbols/Pin_Green.png","_iconSize":[24,24]},"geometry":{"type":"Point","coordinates":[138.801569,36.557922]}},{"properties":{"_iconSize":[24,24],"_iconUrl":"symbols/Pin_Green.png","name":"赤岩通り分岐","_iconAnchor":[12,12]},"geometry":{"coordinates":[138.799139,36.557089],"type":"Point"},"type":"Feature"},{"type":"Feature","properties":{"name":"天狗の蹴上げ岩","_iconAnchor":[12,12],"_iconSize":[24,24],"_iconUrl":"symbols/Pin_Green.png"},"geometry":{"coordinates":[138.798511,36.557192],"type":"Point"}},{"type":"Feature","geometry":{"coordinates":[138.797467,36.557669],"type":"Point"},"properties":{"_iconUrl":"symbols/Pin_Green.png","_iconSize":[24,24],"_iconAnchor":[12,12],"name":"八合目"}},{"type":"Feature","properties":{"_iconSize":[24,24],"_iconUrl":"symbols/Summit.png","標高":"803m","name":"岩櫃山","_iconAnchor":[12,12]},"geometry":{"coordinates":[138.796192,36.556925],"type":"Point"}},{"type":"Feature","properties":{"_iconUrl":"symbols/Pin_Green.png","_iconSize":[24,24],"_iconAnchor":[12,12],"name":"御厩"},"geometry":{"coordinates":[138.795925,36.556967],"type":"Point"}},{"properties":{"_iconUrl":"symbols/Pin_Green.png","_iconSize":[24,24],"_iconAnchor":[12,12],"name":"天狗の架け橋"},"geometry":{"coordinates":[138.794944,36.557592],"type":"Point"},"type":"Feature"},{"type":"Feature","properties":{"name":"密岩通り登山口","_iconAnchor":[12,12],"_iconSize":[24,24],"_iconUrl":"symbols/Trail_Head.png"},"geometry":{"type":"Point","coordinates":[138.792925,36.5563]}},{"type":"Feature","properties":{"name":"大隅桜","_iconAnchor":[12,12],"_iconSize":[24,24],"_iconUrl":"symbols/Pin_Green.png"},"geometry":{"type":"Point","coordinates":[138.792633,36.554078]}},{"type":"Feature","geometry":{"type":"Point","coordinates":[138.793481,36.552625]},"properties":{"_iconAnchor":[12,12],"name":"密岩神社里宮","_iconUrl":"symbols/Scenic_Area.png","_iconSize":[24,24]}},{"type":"Feature","properties":{"name":"登山者用駐車場","_iconAnchor":[12,12],"駐車":"20台","_iconSize":[24,24],"_iconUrl":"symbols/Parking_Area.png"},"geometry":{"coordinates":[138.794956,36.551889],"type":"Point"}},{"type":"Feature","properties":{"_iconAnchor":[12,12],"name":"郷原駅","_iconUrl":"symbols/Pin_Green.png","_iconSize":[24,24]},"geometry":{"type":"Point","coordinates":[138.801231,36.548644]}}]}
