{"bbox":[138.804883,36.090381,138.82916,36.12999],"type":"FeatureCollection","features":[{"geometry":{"coordinates":[138.828503,36.090478],"type":"Point"},"properties":{"_iconSize":[24,24],"_iconUrl":"symbols/Parking_Area.png","name":"立処山登山口","_iconAnchor":[12,12],"駐車":"8台"},"type":"Feature"},{"geometry":{"type":"Point","coordinates":[138.824803,36.092761]},"properties":{"name":"諏訪神社","_iconAnchor":[12,12],"_iconSize":[24,24],"_iconUrl":"symbols/Pin_Green.png"},"type":"Feature"},{"geometry":{"type":"Point","coordinates":[138.821122,36.095683]},"properties":{"_iconSize":[24,24],"_iconUrl":"symbols/Pin_Green.png","name":"階段","_iconAnchor":[12,12]},"type":"Feature"},{"properties":{"_iconAnchor":[12,12],"name":"作業道を通過","_iconUrl":"symbols/Pin_Green.png","_iconSize":[24,24]},"geometry":{"coordinates":[138.820578,36.097881],"type":"Point"},"type":"Feature"},{"properties":{"_iconSize":[24,24],"_iconUrl":"symbols/Summit.png","標高":"849m","name":"堂所山","_iconAnchor":[12,12]},"geometry":{"type":"Point","coordinates":[138.820364,36.100997]},"type":"Feature"},{"geometry":{"type":"Point","coordinates":[138.820692,36.102483]},"properties":{"_iconUrl":"symbols/Pin_Green.png","_iconSize":[24,24],"_iconAnchor":[12,12],"name":"石祠"},"type":"Feature"},{"properties":{"_iconAnchor":[12,12],"name":"作業道に出る","_iconUrl":"symbols/Pin_Green.png","_iconSize":[24,24]},"geometry":{"coordinates":[138.819814,36.104822],"type":"Point"},"type":"Feature"},{"type":"Feature","geometry":{"coordinates":[138.821111,36.107006],"type":"Point"},"properties":{"_iconUrl":"symbols/Pin_Green.png","_iconSize":[24,24],"_iconAnchor":[12,12],"name":"支線起点"}},{"type":"Feature","properties":{"name":"展望所","_iconAnchor":[12,12],"_iconSize":[24,24],"_iconUrl":"symbols/Scenic_Area.png"},"geometry":{"coordinates":[138.821636,36.108361],"type":"Point"}},{"properties":{"_iconSize":[24,24],"_iconUrl":"symbols/Scenic_Area.png","name":"展望所","_iconAnchor":[12,12]},"geometry":{"coordinates":[138.819364,36.110003],"type":"Point"},"type":"Feature"},{"geometry":{"coordinates":[138.818111,36.113719],"type":"Point"},"properties":{"_iconUrl":"symbols/Pin_Green.png","_iconSize":[24,24],"_iconAnchor":[12,12],"name":"支線終点"},"type":"Feature"},{"geometry":{"type":"Point","coordinates":[138.817233,36.110311]},"properties":{"_iconSize":[24,24],"_iconUrl":"symbols/Scenic_Area.png","name":"展望ピーク","_iconAnchor":[12,12]},"type":"Feature"},{"properties":{"_iconSize":[24,24],"_iconUrl":"symbols/Pin_Green.png","name":"岩稜","_iconAnchor":[12,12]},"geometry":{"type":"Point","coordinates":[138.815136,36.114883]},"type":"Feature"},{"type":"Feature","properties":{"_iconSize":[24,24],"_iconUrl":"symbols/Pin_Green.png","name":"図根点標石","_iconAnchor":[12,12]},"geometry":{"coordinates":[138.816189,36.117222],"type":"Point"}},{"type":"Feature","geometry":{"coordinates":[138.817817,36.119725],"type":"Point"},"properties":{"_iconAnchor":[12,12],"標高":"1310m","name":"栗原山","_iconUrl":"symbols/Summit.png","_iconSize":[24,24]}},{"properties":{"_iconUrl":"symbols/Pin_Green.png","_iconSize":[24,24],"_iconAnchor":[12,12],"name":"持倉越"},"geometry":{"coordinates":[138.817192,36.122875],"type":"Point"},"type":"Feature"},{"properties":{"name":"境沢の頭","_iconAnchor":[12,12],"_iconSize":[24,24],"_iconUrl":"symbols/Scenic_Area.png"},"geometry":{"coordinates":[138.816781,36.123806],"type":"Point"},"type":"Feature"},{"properties":{"標高":"1410m","name":"南小太郎山","_iconAnchor":[12,12],"_iconSize":[24,24],"_iconUrl":"symbols/Summit.png"},"geometry":{"coordinates":[138.813069,36.128369],"type":"Point"},"type":"Feature"},{"type":"Feature","geometry":{"coordinates":[138.813336,36.129811],"type":"Point"},"properties":{"_iconSize":[24,24],"_iconUrl":"symbols/Pin_Green.png","name":"萱の平分岐","_iconAnchor":[12,12]}},{"geometry":{"coordinates":[138.805892,36.121356],"type":"Point"},"properties":{"_iconAnchor":[12,12],"name":"コースから離脱","_iconUrl":"symbols/Pin_Green.png","_iconSize":[24,24]},"type":"Feature"},{"properties":{"name":"コースに合流","_iconAnchor":[12,12],"_iconSize":[24,24],"_iconUrl":"symbols/Pin_Green.png"},"geometry":{"coordinates":[138.806228,36.120122],"type":"Point"},"type":"Feature"},{"type":"Feature","geometry":{"type":"Point","coordinates":[138.806039,36.116269]},"properties":{"_iconSize":[24,24],"_iconUrl":"symbols/Pin_Green.png","name":"持倉越分岐","_iconAnchor":[12,12]}},{"properties":{"name":"お天狗様","_iconAnchor":[12,12],"_iconSize":[24,24],"_iconUrl":"symbols/Pin_Green.png"},"geometry":{"coordinates":[138.805569,36.115117],"type":"Point"},"type":"Feature"},{"type":"Feature","properties":{"_iconAnchor":[12,12],"name":"瓔珞橋","_iconUrl":"symbols/Bridge.png","_iconSize":[24,24]},"geometry":{"coordinates":[138.806536,36.112861],"type":"Point"}},{"type":"Feature","properties":{"_iconAnchor":[12,12],"name":"林道境沢線終点","_iconUrl":"symbols/Pin_Green.png","_iconSize":[24,24]},"geometry":{"type":"Point","coordinates":[138.805594,36.109286]}},{"type":"Feature","properties":{"_iconSize":[24,24],"_iconUrl":"symbols/Pin_Green.png","name":"三島橋バス停","_iconAnchor":[12,12]},"geometry":{"type":"Point","coordinates":[138.816325,36.094753]}},{"properties":{"_opacity":0.5,"name":"堂所山～栗原山～南小太郎山（往路）","_dashArray":"3,6","_color":"#ff0000","_weight":3},"geometry":{"type":"LineString","coordinates":[[138.828502,36.090477],[138.828965,36.090383],[138.829109,36.090661],[138.829118,36.091206],[138.826961,36.0919],[138.826681,36.091617],[138.826166,36.09213],[138.825756,36.092297],[138.825062,36.092839],[138.824721,36.092648],[138.824089,36.093039],[138.82339,36.093811],[138.822323,36.093023],[138.821971,36.09295],[138.82228,36.093025],[138.822656,36.093365],[138.822038,36.093957],[138.822234,36.094143],[138.822132,36.09451],[138.821466,36.094698],[138.821245,36.094608],[138.821248,36.094301],[138.82109,36.094166],[138.82065,36.094597],[138.820284,36.094532],[138.820222,36.094388],[138.819957,36.094816],[138.820211,36.095109],[138.819937,36.095125],[138.820423,36.095049],[138.820749,36.095187],[138.821076,36.095745],[138.820868,36.09577],[138.820517,36.095216],[138.82019,36.095487],[138.820262,36.095819],[138.820134,36.095761],[138.820331,36.096638],[138.820272,36.097308],[138.820921,36.098391],[138.821176,36.098559],[138.820868,36.098862],[138.820651,36.099482],[138.820346,36.099844],[138.820204,36.100747],[138.820018,36.1007],[138.820371,36.100991],[138.820265,36.101266],[138.820461,36.101293],[138.820492,36.101485],[138.820824,36.101755],[138.820853,36.102215],[138.820411,36.103143],[138.820469,36.103302],[138.820269,36.103386],[138.820331,36.103453],[138.820102,36.103677],[138.820308,36.103755],[138.819759,36.104046],[138.819617,36.104312],[138.820091,36.106242],[138.820646,36.106341],[138.821388,36.106709],[138.821029,36.107255],[138.821467,36.108289],[138.821658,36.108364],[138.821287,36.108331],[138.820918,36.108582],[138.820865,36.108813],[138.820496,36.108885],[138.82005,36.109302],[138.819513,36.109354],[138.819202,36.109534],[138.819371,36.109721],[138.819365,36.110003],[138.818648,36.110113],[138.817909,36.110747],[138.817786,36.111883],[138.817975,36.112452],[138.81792,36.113379],[138.818105,36.113862],[138.818096,36.11366],[138.818118,36.11374],[138.818208,36.113596],[138.81804,36.113625],[138.818206,36.113238],[138.818191,36.111387],[138.818459,36.111088],[138.819414,36.110712],[138.819169,36.110358],[138.819353,36.109929],[138.819382,36.110013],[138.819221,36.109609],[138.819427,36.109414],[138.819648,36.10941],[138.821477,36.108284],[138.821064,36.106983],[138.820605,36.106836],[138.818941,36.107244],[138.818553,36.107457],[138.818138,36.1079],[138.817194,36.108258],[138.816743,36.108272],[138.815974,36.108547],[138.815821,36.108809],[138.816256,36.109008],[138.816411,36.108907],[138.816412,36.109235],[138.816701,36.108896],[138.816804,36.108919],[138.816776,36.109568],[138.81649,36.109813],[138.816444,36.109723],[138.816845,36.110041],[138.816646,36.110368],[138.817128,36.110357],[138.817191,36.110044],[138.817244,36.110325],[138.817202,36.110067],[138.816865,36.110827],[138.816393,36.111003],[138.815108,36.113918],[138.815203,36.113821],[138.815043,36.114203],[138.81488,36.11419],[138.814753,36.114671],[138.81558,36.115353],[138.815491,36.115932],[138.815788,36.116807],[138.815713,36.117051],[138.816634,36.117285],[138.817271,36.11912],[138.817597,36.119321],[138.817839,36.119707],[138.817793,36.120181],[138.81759,36.120313],[138.81741,36.120707],[138.817484,36.121502],[138.817291,36.121821],[138.817331,36.122701],[138.816929,36.123566],[138.816725,36.123742],[138.816783,36.123859],[138.816647,36.123943],[138.816338,36.124812],[138.816198,36.125842],[138.816487,36.126008],[138.81652,36.126335],[138.816022,36.126359],[138.815738,36.126165],[138.814618,36.126537],[138.813959,36.127304],[138.813771,36.127877],[138.813087,36.128357]]},"type":"Feature"},{"type":"Feature","properties":{"_opacity":0.5,"name":"堂所山～栗原山～南小太郎山（復路）","_weight":3,"_color":"#0000ff","_dashArray":"3,6"},"geometry":{"coordinates":[[138.813069,36.12837],[138.812979,36.128426],[138.813027,36.128324],[138.813053,36.128399],[138.813044,36.128252],[138.812961,36.128484],[138.813057,36.128279],[138.812964,36.128288],[138.813083,36.128374],[138.813478,36.12999],[138.813045,36.12957],[138.812232,36.129257],[138.811564,36.128835],[138.811224,36.128446],[138.811095,36.127915],[138.811359,36.127143],[138.810943,36.126849],[138.811083,36.126692],[138.810894,36.126518],[138.810393,36.126461],[138.810312,36.126179],[138.809532,36.125536],[138.809141,36.124936],[138.807618,36.123963],[138.806646,36.122561],[138.806079,36.121991],[138.805915,36.121317],[138.80617,36.121358],[138.806478,36.120006],[138.806179,36.12011],[138.806572,36.119218],[138.806309,36.118806],[138.806385,36.118695],[138.806092,36.11857],[138.806162,36.118482],[138.805873,36.118224],[138.805737,36.117325],[138.805603,36.11721],[138.805509,36.116674],[138.805615,36.116571],[138.806105,36.116725],[138.806222,36.116625],[138.806024,36.116186],[138.805638,36.116041],[138.805757,36.115912],[138.805721,36.115645],[138.805853,36.11564],[138.805773,36.115196],[138.805598,36.115173],[138.805616,36.115067],[138.805532,36.115195],[138.805917,36.114995],[138.805634,36.113904],[138.805696,36.113973],[138.80563,36.113905],[138.805844,36.113778],[138.806019,36.113816],[138.805686,36.112951],[138.806495,36.11333],[138.806763,36.113333],[138.80641,36.112737],[138.805994,36.11256],[138.806361,36.112679],[138.806597,36.113142],[138.806755,36.113186],[138.80702,36.113026],[138.806896,36.113069],[138.807144,36.113032],[138.807112,36.112947],[138.807246,36.113],[138.806834,36.113101],[138.806366,36.112559],[138.806053,36.112359],[138.805658,36.11174],[138.805529,36.111043],[138.805618,36.110295],[138.805335,36.109674],[138.805668,36.109156],[138.805545,36.109003],[138.804965,36.108911],[138.804883,36.108807],[138.805401,36.108565],[138.805933,36.10791],[138.805766,36.107952],[138.806129,36.107851],[138.807025,36.105902],[138.807379,36.105627],[138.807839,36.105492],[138.808017,36.105152],[138.80867,36.104881],[138.809544,36.10493],[138.809842,36.104741],[138.809913,36.104407],[138.810527,36.104377],[138.810653,36.104514],[138.811077,36.104398],[138.811622,36.104416],[138.811691,36.104085],[138.811395,36.10417],[138.811303,36.103997],[138.812729,36.103079],[138.813231,36.102906],[138.813668,36.102279],[138.814519,36.10158],[138.814474,36.100374],[138.81487,36.099806],[138.814814,36.098058],[138.814459,36.097562],[138.81561,36.096073],[138.815487,36.095823],[138.815839,36.095533],[138.815819,36.095312],[138.815561,36.095105],[138.815449,36.094404],[138.816124,36.094751],[138.817334,36.09454],[138.81826,36.093794],[138.81855,36.093404],[138.818543,36.09307],[138.818324,36.092832],[138.818398,36.092099],[138.819162,36.092088],[138.821369,36.092545],[138.822336,36.092403],[138.822876,36.092471],[138.824287,36.091358],[138.824771,36.091229],[138.826615,36.091597],[138.82687,36.091884],[138.827096,36.091911],[138.82916,36.091202],[138.829009,36.090404],[138.828612,36.090381],[138.828417,36.09052]],"type":"LineString"}}]}
