{"bbox":[138.369666,36.786723,138.403812,36.802749],"type":"FeatureCollection","features":[{"type":"Feature","geometry":{"coordinates":[[138.369727,36.786768],[138.369666,36.786723],[138.370296,36.786859],[138.370123,36.786997],[138.370491,36.787129],[138.370526,36.787075],[138.370674,36.787234],[138.370702,36.787139],[138.370762,36.787168],[138.370504,36.787612],[138.370828,36.788032],[138.372612,36.787862],[138.373104,36.788033],[138.373375,36.78823],[138.373887,36.788973],[138.374479,36.789322],[138.375173,36.789428],[138.37731,36.790382],[138.378028,36.790872],[138.379282,36.791309],[138.379832,36.791753],[138.379957,36.792009],[138.381484,36.793112],[138.38235,36.793421],[138.383175,36.793842],[138.383414,36.794075],[138.384037,36.794369],[138.38476,36.795],[138.385098,36.795092],[138.386315,36.795845],[138.386349,36.79595],[138.386669,36.796124],[138.387113,36.796599],[138.387859,36.797004],[138.38807,36.797214],[138.388858,36.797601],[138.388853,36.797717],[138.38901,36.797811],[138.389008,36.797924],[138.389366,36.798172],[138.389363,36.798283],[138.389648,36.798554],[138.389834,36.799285],[138.389739,36.799599],[138.389882,36.799782],[138.389796,36.799878],[138.389858,36.800134],[138.389784,36.800187],[138.389746,36.800575],[138.389562,36.800674],[138.389618,36.800741],[138.389525,36.800976],[138.389558,36.801135],[138.389503,36.801122],[138.389575,36.801662],[138.389746,36.801959],[138.390253,36.80213],[138.390594,36.802139],[138.391245,36.802354],[138.392356,36.802326],[138.392769,36.802462],[138.394591,36.802747],[138.394958,36.802671],[138.395133,36.802723],[138.395674,36.802478],[138.396125,36.80243],[138.396257,36.802306],[138.396859,36.802171],[138.39674,36.802158],[138.397069,36.802134],[138.397476,36.801959],[138.398109,36.801295],[138.398244,36.801246],[138.398374,36.80099],[138.39829,36.801024],[138.39829,36.800697],[138.39836,36.800633],[138.398226,36.800667],[138.398285,36.800557],[138.398159,36.800427],[138.398365,36.80059],[138.398415,36.800472],[138.398566,36.800532],[138.398979,36.800479],[138.399799,36.799952],[138.400076,36.799878],[138.400035,36.799834],[138.400165,36.799779],[138.400192,36.799659],[138.400292,36.799666],[138.40045,36.799423],[138.400577,36.799494],[138.401392,36.79936],[138.401873,36.799396],[138.40322,36.799186],[138.403798,36.799302]],"type":"LineString"},"properties":{"_opacity":0.5,"_weight":3,"_color":"#ff0000","_dashArray":"3,6"}},{"geometry":{"coordinates":[[138.403799,36.799302],[138.403812,36.799257],[138.40327,36.799176],[138.402271,36.799368],[138.401329,36.799363],[138.401125,36.799434],[138.4004,36.799478],[138.400349,36.799624],[138.4002,36.79962],[138.400211,36.799738],[138.400099,36.799708],[138.399273,36.80031],[138.398787,36.800536],[138.398604,36.800546],[138.398449,36.800445],[138.398185,36.800799],[138.398261,36.801058],[138.398031,36.801453],[138.397631,36.801719],[138.397501,36.801944],[138.397264,36.802071],[138.396662,36.80217],[138.396108,36.802424],[138.395777,36.80243],[138.395233,36.802686],[138.394649,36.802749],[138.393851,36.802564],[138.392807,36.802449],[138.392332,36.802287],[138.391255,36.802365],[138.389795,36.801969],[138.389861,36.802],[138.389634,36.801654],[138.38957,36.801087],[138.389663,36.800622],[138.389807,36.800511],[138.389962,36.800041],[138.389945,36.799764],[138.389846,36.799624],[138.38989,36.799174],[138.389631,36.798388],[138.389126,36.797954],[138.38883,36.797565],[138.388271,36.797243],[138.388159,36.797243],[138.387913,36.797013],[138.387058,36.796544],[138.386745,36.796149],[138.385067,36.795062],[138.384816,36.794978],[138.384384,36.794549],[138.383553,36.7941],[138.382924,36.793653],[138.381833,36.793195],[138.381749,36.793076],[138.381194,36.792903],[138.380981,36.792663],[138.380342,36.792235],[138.380098,36.791949],[138.379143,36.791213],[138.377809,36.790733],[138.377278,36.790352],[138.375892,36.789754],[138.375596,36.789561],[138.375399,36.789541],[138.375138,36.789357],[138.374838,36.789368],[138.373936,36.788998],[138.373624,36.788682],[138.37355,36.788477],[138.37295,36.787934],[138.37249,36.787831],[138.370847,36.788077],[138.370706,36.787823],[138.370381,36.787536],[138.370424,36.787448]],"type":"LineString"},"properties":{"_opacity":0.5,"_dashArray":"3,6","_weight":3,"_color":"#0000ff"},"type":"Feature"},{"type":"Feature","geometry":{"type":"Point","coordinates":[138.403794,36.799294]},"properties":{"_iconUrl":"symbols/Summit.png","_iconSize":[24,24],"_iconAnchor":[12,12],"name":"高社山","標高":"1352m"}},{"type":"Feature","properties":{"_iconAnchor":[12,12],"name":"御嶽","_iconUrl":"symbols/Scenic_Area.png","_iconSize":[24,24]},"geometry":{"type":"Point","coordinates":[138.400453,36.799436]}},{"properties":{"name":"天狗岩","_iconAnchor":[12,12],"_iconSize":[24,24],"_iconUrl":"symbols/Scenic_Area.png"},"geometry":{"type":"Point","coordinates":[138.398189,36.800411]},"type":"Feature"},{"type":"Feature","properties":{"_iconSize":[24,24],"_iconUrl":"symbols/Pin_Green.png","name":"岩室","_iconAnchor":[12,12]},"geometry":{"coordinates":[138.398331,36.800842],"type":"Point"}},{"properties":{"_iconUrl":"symbols/Pin_Green.png","_iconSize":[24,24],"_iconAnchor":[12,12],"name":"八幡神"},"geometry":{"coordinates":[138.396772,36.802164],"type":"Point"},"type":"Feature"},{"type":"Feature","properties":{"_iconSize":[24,24],"_iconUrl":"symbols/Pin_Green.png","name":"虚空蔵菩薩","_iconAnchor":[12,12]},"geometry":{"coordinates":[138.392697,36.802431],"type":"Point"}},{"type":"Feature","properties":{"name":"胴結場","_iconAnchor":[12,12],"_iconSize":[24,24],"_iconUrl":"symbols/Pin_Green.png"},"geometry":{"coordinates":[138.38975,36.801958],"type":"Point"}},{"geometry":{"coordinates":[138.389867,36.8001],"type":"Point"},"properties":{"_iconAnchor":[12,12],"name":"勢至菩薩","_iconUrl":"symbols/Pin_Green.png","_iconSize":[24,24]},"type":"Feature"},{"type":"Feature","properties":{"_iconSize":[24,24],"_iconUrl":"symbols/Pin_Green.png","name":"三本松","_iconAnchor":[12,12]},"geometry":{"type":"Point","coordinates":[138.389647,36.798556]}},{"type":"Feature","properties":{"name":"観音菩薩","_iconAnchor":[12,12],"_iconSize":[24,24],"_iconUrl":"symbols/Pin_Green.png"},"geometry":{"coordinates":[138.388175,36.797239],"type":"Point"}},{"geometry":{"type":"Point","coordinates":[138.386706,36.796178]},"properties":{"_iconSize":[24,24],"_iconUrl":"symbols/Pin_Green.png","name":"薬師如来","_iconAnchor":[12,12]},"type":"Feature"},{"properties":{"_iconSize":[24,24],"_iconUrl":"symbols/Pin_Green.png","name":"地蔵菩薩","_iconAnchor":[12,12]},"geometry":{"type":"Point","coordinates":[138.384717,36.794928]},"type":"Feature"},{"type":"Feature","properties":{"name":"天狗の飛び石","_iconAnchor":[12,12],"_iconSize":[24,24],"_iconUrl":"symbols/Pin_Green.png"},"geometry":{"type":"Point","coordinates":[138.382253,36.793389]}},{"type":"Feature","properties":{"_iconSize":[24,24],"_iconUrl":"symbols/Pin_Green.png","name":"文殊菩薩","_iconAnchor":[12,12]},"geometry":{"coordinates":[138.379958,36.791936],"type":"Point"}},{"type":"Feature","properties":{"_iconAnchor":[12,12],"name":"釈迦如来","_iconUrl":"symbols/Pin_Green.png","_iconSize":[24,24]},"geometry":{"coordinates":[138.375656,36.789633],"type":"Point"}},{"type":"Feature","geometry":{"type":"Point","coordinates":[138.373494,36.788411]},"properties":{"_iconAnchor":[12,12],"name":"不動明王","_iconUrl":"symbols/Pin_Green.png","_iconSize":[24,24]}},{"geometry":{"coordinates":[138.37235,36.787844],"type":"Point"},"properties":{"_iconUrl":"symbols/Pin_Green.png","_iconSize":[24,24],"_iconAnchor":[12,12],"name":"高社山登山口"},"type":"Feature"},{"type":"Feature","geometry":{"type":"Point","coordinates":[138.369728,36.786767]},"properties":{"_iconUrl":"symbols/Pin_Green.png","_iconSize":[24,24],"_iconAnchor":[12,12],"name":"高社神社"}}]}
