{"type":"FeatureCollection","bbox":[139.088124,37.393518,139.136569,37.41071],"features":[{"type":"Feature","geometry":{"coordinates":[139.088397,37.393897],"type":"Point"},"properties":{"駐車":"30台","_iconAnchor":[12,12],"name":"二口登山口","_iconUrl":"symbols/Parking_Area.png","_iconSize":[24,24]}},{"type":"Feature","geometry":{"coordinates":[139.097081,37.394603],"type":"Point"},"properties":{"_iconSize":[24,24],"_iconUrl":"symbols/Drinking_Water.png","name":"護人清水","_iconAnchor":[12,12]}},{"properties":{"_iconAnchor":[12,12],"name":"谷内平","_iconUrl":"symbols/Pin_Green.png","_iconSize":[24,24]},"geometry":{"coordinates":[139.102747,37.397944],"type":"Point"},"type":"Feature"},{"properties":{"_iconUrl":"symbols/Scenic_Area.png","_iconSize":[24,24],"_iconAnchor":[12,12],"name":"見晴し（中間点）"},"geometry":{"type":"Point","coordinates":[139.113319,37.397967]},"type":"Feature"},{"type":"Feature","properties":{"_iconUrl":"symbols/Pin_Green.png","_iconSize":[24,24],"_iconAnchor":[12,12],"name":"大岳分岐"},"geometry":{"coordinates":[139.126628,37.402211],"type":"Point"}},{"geometry":{"type":"Point","coordinates":[139.131536,37.39975]},"properties":{"_iconAnchor":[12,12],"標高":"1487m","name":"青雲岳","_iconUrl":"symbols/Summit.png","_iconSize":[24,24]},"type":"Feature"},{"type":"Feature","geometry":{"coordinates":[139.136547,37.397667],"type":"Point"},"properties":{"_iconSize":[24,24],"_iconUrl":"symbols/Summit.png","標高":"1537m","name":"袴岳","_iconAnchor":[12,12]}},{"type":"Feature","properties":{"_iconAnchor":[12,12],"name":"大岳","標高":"1432m","_iconUrl":"symbols/Summit.png","_iconSize":[24,24]},"geometry":{"type":"Point","coordinates":[139.123258,37.410053]}},{"properties":{"_iconSize":[24,24],"_iconUrl":"symbols/Drinking_Water.png","name":"天狗清水","_iconAnchor":[12,12]},"geometry":{"coordinates":[139.119517,37.409594],"type":"Point"},"type":"Feature"},{"geometry":{"coordinates":[139.118389,37.410333],"type":"Point"},"properties":{"name":"不動平","_iconAnchor":[12,12],"_iconSize":[24,24],"_iconUrl":"symbols/Pin_Green.png"},"type":"Feature"},{"geometry":{"coordinates":[139.1148,37.410442],"type":"Point"},"properties":{"name":"第2展望台","_iconAnchor":[12,12],"_iconSize":[24,24],"_iconUrl":"symbols/Scenic_Area.png"},"type":"Feature"},{"properties":{"_iconAnchor":[12,12],"name":"キビタキ小屋","_iconUrl":"symbols/Fishing_Hot_Spot_Facility.png","_iconSize":[24,24]},"geometry":{"type":"Point","coordinates":[139.107208,37.410447]},"type":"Feature"},{"properties":{"name":"キビタキ清水","_iconAnchor":[12,12],"_iconSize":[24,24],"_iconUrl":"symbols/Drinking_Water.png"},"geometry":{"type":"Point","coordinates":[139.1067,37.410272]},"type":"Feature"},{"type":"Feature","geometry":{"coordinates":[139.098142,37.409908],"type":"Point"},"properties":{"_iconUrl":"symbols/Fishing_Hot_Spot_Facility.png","_iconSize":[24,24],"_iconAnchor":[12,12],"name":"保久礼小屋"}},{"geometry":{"coordinates":[139.09195,37.404017],"type":"Point"},"properties":{"_iconUrl":"symbols/Parking_Area.png","_iconSize":[24,24],"駐車":"15台","_iconAnchor":[12,12],"name":"保久礼登山道入口"},"type":"Feature"},{"geometry":{"coordinates":[[139.136546,37.397668],[139.136569,37.397756],[139.13612,37.398033],[139.135766,37.398015],[139.135336,37.398334],[139.133806,37.398471],[139.133064,37.398897],[139.132818,37.399171],[139.130803,37.400036],[139.130494,37.40027],[139.130295,37.400795],[139.129463,37.401138],[139.12878,37.401062],[139.127794,37.401244],[139.12744,37.401534],[139.127233,37.401974],[139.126754,37.402219],[139.1263,37.402189],[139.126615,37.402225],[139.126259,37.402708],[139.126608,37.403197],[139.126394,37.403751],[139.125815,37.404012],[139.125685,37.404232],[139.125821,37.404902],[139.125377,37.405188],[139.124412,37.406768],[139.123794,37.40729],[139.123845,37.407766],[139.123434,37.408217],[139.123192,37.408936],[139.123463,37.409954],[139.123224,37.410094],[139.123067,37.409999],[139.122548,37.410046],[139.121806,37.4103],[139.12107,37.410307],[139.120704,37.410182],[139.119026,37.410283],[139.119489,37.409841],[139.11953,37.409607],[139.119526,37.40984],[139.119021,37.41028],[139.115822,37.410366],[139.115357,37.410462],[139.114631,37.410379],[139.113399,37.41061],[139.110435,37.4105],[139.108567,37.41071],[139.107352,37.410628],[139.107257,37.410366],[139.107156,37.410449],[139.106892,37.41017],[139.106705,37.410168],[139.106728,37.410295],[139.106662,37.410204],[139.105961,37.410156],[139.104507,37.410335],[139.103446,37.410251],[139.102492,37.409924],[139.101351,37.409823],[139.099557,37.409883],[139.098374,37.409782],[139.098143,37.409909],[139.098158,37.410027],[139.098161,37.409943],[139.098059,37.409979],[139.09815,37.409892],[139.097994,37.409924],[139.097982,37.410048],[139.097826,37.409743],[139.098387,37.4092],[139.097691,37.408939],[139.097929,37.408668],[139.098281,37.40859],[139.097739,37.408239],[139.096806,37.408345],[139.096168,37.407996],[139.095717,37.4073],[139.094732,37.406667],[139.094824,37.406415],[139.09444,37.405653],[139.093784,37.405417],[139.093193,37.404484],[139.092915,37.404285],[139.092165,37.40427],[139.091933,37.404071],[139.092025,37.403864],[139.091619,37.403634],[139.09131,37.403233],[139.091365,37.403125],[139.092106,37.4034],[139.09243,37.403207],[139.092145,37.402818],[139.09229,37.402272],[139.091811,37.401544],[139.091098,37.401186],[139.090637,37.400612],[139.08998,37.399034],[139.089737,37.398732],[139.089744,37.398368],[139.089248,37.397284],[139.088704,37.396945],[139.088146,37.396141],[139.088124,37.395563],[139.088564,37.394411],[139.088433,37.394379],[139.088392,37.394039]],"type":"LineString"},"properties":{"name":"守門岳（復路）","_opacity":0.5,"_color":"#0000ff","_weight":3,"_dashArray":"3,6"},"type":"Feature"},{"geometry":{"type":"LineString","coordinates":[[139.088397,37.393897],[139.089327,37.393518],[139.090098,37.393547],[139.090481,37.393829],[139.09105,37.393648],[139.091173,37.393786],[139.092352,37.39423],[139.092464,37.394123],[139.093208,37.394166],[139.093349,37.394066],[139.094217,37.394619],[139.094793,37.394632],[139.095357,37.394448],[139.096302,37.394347],[139.09687,37.394463],[139.097177,37.394667],[139.097674,37.394605],[139.0986,37.394783],[139.098826,37.394966],[139.098624,37.395605],[139.099065,37.395568],[139.099955,37.396387],[139.100173,37.396413],[139.101107,37.396981],[139.101976,37.397753],[139.102185,37.39769],[139.104045,37.398405],[139.108442,37.398046],[139.110498,37.398283],[139.111084,37.398166],[139.111501,37.398258],[139.112177,37.398203],[139.112474,37.398028],[139.112873,37.398095],[139.113319,37.397981],[139.115584,37.398606],[139.116578,37.399129],[139.117172,37.399142],[139.117946,37.399358],[139.119689,37.400123],[139.120506,37.400658],[139.122097,37.40134],[139.123748,37.401663],[139.124322,37.402106],[139.124787,37.402277],[139.125958,37.402428],[139.126259,37.402217],[139.126739,37.402225],[139.1272,37.402025],[139.127463,37.401466],[139.127847,37.401232],[139.127976,37.401283],[139.128772,37.401045],[139.129511,37.401117],[139.13011,37.400929],[139.130659,37.400097],[139.131535,37.39975],[139.131547,37.399917],[139.131536,37.399759],[139.132746,37.399191],[139.133808,37.398453],[139.135239,37.398355],[139.135793,37.398011],[139.136067,37.398048],[139.136567,37.397696]]},"properties":{"_dashArray":"3,6","_color":"#ff0000","_weight":3,"_opacity":0.5,"name":"守門岳（往路）"},"type":"Feature"}]}
