{"bbox":[138.824875,36.169024,138.841604,36.196212],"type":"FeatureCollection","features":[{"geometry":{"type":"Point","coordinates":[138.836128,36.194636]},"properties":{"_iconAnchor":[12,12],"駐車":"5台","name":"野上ルート登山口","_iconUrl":"symbols/Parking_Area.png","_iconSize":[24,24]},"type":"Feature"},{"type":"Feature","geometry":{"type":"Point","coordinates":[138.841542,36.186314]},"properties":{"name":"横見峠分岐","_iconAnchor":[12,12],"_iconSize":[24,24],"_iconUrl":"symbols/Pin_Green.png"}},{"properties":{"_iconSize":[24,24],"_iconUrl":"symbols/Pin_Green.png","name":"稲含神社","_iconAnchor":[12,12]},"geometry":{"type":"Point","coordinates":[138.832314,36.176364]},"type":"Feature"},{"type":"Feature","properties":{"_iconUrl":"symbols/Parking_Area.png","_iconSize":[24,24],"駐車":"10台","_iconAnchor":[12,12],"name":"神の池公園"},"geometry":{"type":"Point","coordinates":[138.831875,36.174889]}},{"type":"Feature","geometry":{"type":"Point","coordinates":[138.832328,36.173006]},"properties":{"_iconUrl":"symbols/Pin_Green.png","_iconSize":[24,24],"_iconAnchor":[12,12],"name":"一の鳥居"}},{"type":"Feature","properties":{"name":"二の鳥居","_iconAnchor":[12,12],"_iconSize":[24,24],"_iconUrl":"symbols/Pin_Green.png"},"geometry":{"type":"Point","coordinates":[138.829458,36.170483]}},{"properties":{"_iconAnchor":[12,12],"name":"稲含神社","_iconUrl":"symbols/Pin_Green.png","_iconSize":[24,24]},"geometry":{"coordinates":[138.828175,36.169025],"type":"Point"},"type":"Feature"},{"type":"Feature","properties":{"_iconUrl":"symbols/Summit.png","_iconSize":[24,24],"_iconAnchor":[12,12],"標高":"1370m","name":"稲含山"},"geometry":{"coordinates":[138.825267,36.169511],"type":"Point"}},{"properties":{"_iconAnchor":[12,12],"name":"赤鳥居","_iconUrl":"symbols/Pin_Green.png","_iconSize":[24,24]},"geometry":{"type":"Point","coordinates":[138.829958,36.172361]},"type":"Feature"},{"geometry":{"coordinates":[138.830261,36.1729],"type":"Point"},"properties":{"_iconAnchor":[12,12],"name":"茂垣峠（鳥居下）","_iconUrl":"symbols/Pin_Green.png","_iconSize":[24,24]},"type":"Feature"},{"geometry":{"coordinates":[138.830394,36.174264],"type":"Point"},"properties":{"_iconSize":[24,24],"_iconUrl":"symbols/Parking_Area.png","name":"茂垣峠（駐車場）","駐車":"20台","_iconAnchor":[12,12]},"type":"Feature"},{"geometry":{"type":"Point","coordinates":[138.831542,36.1785]},"properties":{"_iconAnchor":[12,12],"name":"黒内山","標高":"1112m","_iconUrl":"symbols/Summit.png","_iconSize":[24,24]},"type":"Feature"},{"properties":{"_iconUrl":"symbols/Short_Tower.png","_iconSize":[24,24],"_iconAnchor":[12,12],"name":"114号鉄塔"},"geometry":{"coordinates":[138.830872,36.178233],"type":"Point"},"type":"Feature"},{"geometry":{"coordinates":[138.830589,36.180806],"type":"Point"},"properties":{"name":"113号鉄塔","_iconAnchor":[12,12],"_iconSize":[24,24],"_iconUrl":"symbols/Short_Tower.png"},"type":"Feature"},{"type":"Feature","properties":{"_iconUrl":"symbols/Short_Tower.png","_iconSize":[24,24],"_iconAnchor":[12,12],"name":"112号鉄塔"},"geometry":{"type":"Point","coordinates":[138.830258,36.184103]}},{"type":"Feature","geometry":{"coordinates":[138.830272,36.188061],"type":"Point"},"properties":{"_iconAnchor":[12,12],"name":"111号鉄塔","_iconUrl":"symbols/Short_Tower.png","_iconSize":[24,24]}},{"properties":{"name":"110号鉄塔","_iconAnchor":[12,12],"_iconSize":[24,24],"_iconUrl":"symbols/Short_Tower.png"},"geometry":{"coordinates":[138.832178,36.190353],"type":"Point"},"type":"Feature"},{"type":"Feature","properties":{"_iconAnchor":[12,12],"name":"109号鉄塔","_iconUrl":"symbols/Short_Tower.png","_iconSize":[24,24]},"geometry":{"type":"Point","coordinates":[138.832867,36.192972]}},{"type":"Feature","geometry":{"coordinates":[[138.836128,36.194635],[138.835927,36.193452],[138.836229,36.193657],[138.83632,36.19323],[138.837066,36.193536],[138.837183,36.193376],[138.836852,36.193035],[138.836839,36.191972],[138.83732,36.191135],[138.837278,36.190783],[138.837484,36.190263],[138.837347,36.1901],[138.837344,36.189706],[138.837831,36.189012],[138.838091,36.188838],[138.838043,36.188551],[138.838353,36.188007],[138.838221,36.187376],[138.838788,36.186823],[138.838689,36.186674],[138.839327,36.186189],[138.83999,36.187281],[138.840353,36.187452],[138.84111,36.186908],[138.841041,36.186814],[138.841151,36.186757],[138.841083,36.186468],[138.841604,36.186343],[138.841323,36.186181],[138.841477,36.185605],[138.841172,36.185221],[138.840946,36.184514],[138.840599,36.184142],[138.840443,36.182971],[138.84009,36.182626],[138.839581,36.180994],[138.838916,36.18051],[138.838682,36.180024],[138.836801,36.179414],[138.836576,36.179152],[138.835994,36.178872],[138.835949,36.17862],[138.835125,36.178081],[138.835052,36.17784],[138.83461,36.177489],[138.832832,36.176783],[138.832244,36.176373],[138.832384,36.176223],[138.831846,36.175189],[138.831947,36.174945],[138.831828,36.174506],[138.832142,36.174221],[138.831869,36.174155],[138.832346,36.173846],[138.832439,36.173307],[138.832294,36.172925],[138.831594,36.17268],[138.831485,36.172497],[138.83069,36.172283],[138.830244,36.17167],[138.830032,36.171016],[138.829197,36.170621],[138.829459,36.170484],[138.829065,36.170269],[138.828835,36.169968],[138.828932,36.169876],[138.82878,36.170043],[138.828632,36.169979],[138.828421,36.170073],[138.8285,36.170182],[138.828145,36.16953],[138.828336,36.169457],[138.828236,36.169259],[138.828382,36.169179],[138.828117,36.169024],[138.828205,36.169072],[138.828043,36.169391],[138.827582,36.169443],[138.827548,36.169547],[138.827349,36.169528],[138.827335,36.169798],[138.826655,36.169971],[138.826472,36.169918],[138.826335,36.169688],[138.825765,36.169666],[138.825266,36.169961],[138.824875,36.170014],[138.825258,36.169507]],"type":"LineString"},"properties":{"_weight":3,"_color":"#ff0000","_dashArray":"3,6","_opacity":0.5,"name":"稲含山～黒内山（往路）"}},{"type":"Feature","properties":{"_opacity":0.5,"name":"稲含山～黒内山（復路）","_dashArray":"3,6","_weight":3,"_color":"#0000ff"},"geometry":{"type":"LineString","coordinates":[[138.825268,36.169512],[138.824984,36.169962],[138.825985,36.16965],[138.826249,36.169743],[138.826387,36.170054],[138.826571,36.170109],[138.826656,36.170302],[138.827312,36.1706],[138.827442,36.170879],[138.827526,36.170846],[138.827378,36.17106],[138.827429,36.171257],[138.828538,36.17154],[138.8285,36.171647],[138.828827,36.172013],[138.829412,36.172276],[138.829791,36.172089],[138.830345,36.173103],[138.830127,36.173019],[138.829859,36.173209],[138.829717,36.17354],[138.830143,36.174309],[138.830333,36.17435],[138.830396,36.174264],[138.830275,36.174363],[138.830372,36.174315],[138.830353,36.174583],[138.830095,36.174908],[138.830421,36.175524],[138.830347,36.175926],[138.830541,36.176206],[138.830527,36.176819],[138.830197,36.177543],[138.830477,36.177995],[138.831111,36.178388],[138.831108,36.178255],[138.831613,36.17851],[138.830947,36.178984],[138.830341,36.179243],[138.830157,36.178263],[138.830871,36.178233],[138.830219,36.178185],[138.830186,36.179261],[138.829994,36.179823],[138.829834,36.179856],[138.829929,36.179872],[138.829745,36.18021],[138.829867,36.180453],[138.830612,36.180808],[138.830132,36.180666],[138.829726,36.181164],[138.82966,36.181696],[138.828651,36.182864],[138.829091,36.18339],[138.829889,36.183959],[138.830315,36.18412],[138.830205,36.184194],[138.830314,36.184771],[138.830897,36.18531],[138.830798,36.186226],[138.830509,36.18652],[138.830228,36.188136],[138.830439,36.188191],[138.830832,36.188758],[138.83105,36.189665],[138.831729,36.189909],[138.832073,36.190302],[138.832518,36.190422],[138.832221,36.190469],[138.831919,36.19153],[138.832751,36.19301],[138.833058,36.192921],[138.832778,36.192701],[138.832977,36.192781],[138.832755,36.193242],[138.832988,36.194152],[138.833209,36.194494],[138.833217,36.194391],[138.833335,36.194489],[138.833664,36.194454],[138.833451,36.194361],[138.833603,36.194141],[138.833905,36.194112],[138.834252,36.194292],[138.834128,36.194311],[138.834236,36.194401],[138.834289,36.194287],[138.83457,36.194291],[138.834855,36.194523],[138.835039,36.195384],[138.835325,36.195634],[138.835174,36.195859],[138.835439,36.196173],[138.835574,36.196111],[138.835788,36.196212],[138.83596,36.196127],[138.836089,36.194833]]}}]}
