{"bbox":[139.466494,36.379097,139.555573,36.470347],"type":"FeatureCollection","features":[{"properties":{"_dashArray":"3,6","_color":"#ff0000","_weight":3,"_opacity":0.5},"geometry":{"type":"LineString","coordinates":[[139.553511,36.379098],[139.554285,36.379498],[139.554242,36.379675],[139.554388,36.379904],[139.554653,36.379912],[139.554874,36.380191],[139.554931,36.384007],[139.55446,36.384149],[139.554374,36.3849],[139.554498,36.385329],[139.55523,36.386583],[139.55531,36.386884],[139.555215,36.386921],[139.555096,36.387199],[139.555573,36.388162],[139.55469,36.388965],[139.554561,36.389184],[139.5546,36.389878],[139.554175,36.390746],[139.55425,36.391043],[139.554116,36.39222],[139.553891,36.39251],[139.553576,36.392725],[139.553485,36.392976],[139.553185,36.39288],[139.553386,36.39333],[139.552807,36.39409],[139.552937,36.394152],[139.552951,36.394335],[139.552823,36.394545],[139.553049,36.39463],[139.553059,36.394928],[139.553317,36.395168],[139.553485,36.395694],[139.55376,36.39602],[139.553933,36.395977],[139.554001,36.395839],[139.55415,36.395881],[139.554319,36.395794],[139.554865,36.396029],[139.554342,36.395803],[139.554001,36.395842],[139.553901,36.395963],[139.553586,36.396103],[139.552973,36.395916],[139.552089,36.396407],[139.551845,36.396627],[139.551781,36.396549],[139.551177,36.396663],[139.550965,36.396769],[139.550698,36.396794],[139.550859,36.396793],[139.550995,36.396962],[139.55111,36.397405],[139.551572,36.397784],[139.551427,36.398103],[139.550853,36.398436],[139.550626,36.398749],[139.550493,36.398793],[139.550182,36.399474],[139.549948,36.399755],[139.550088,36.400028],[139.549906,36.40088],[139.550171,36.401243],[139.549829,36.401722],[139.549639,36.402336],[139.549379,36.402623],[139.549405,36.403241],[139.548363,36.403413],[139.547926,36.403374],[139.547603,36.403594],[139.54744,36.403841],[139.547025,36.404109],[139.546931,36.404086],[139.547114,36.40465],[139.547112,36.40533],[139.547197,36.405526],[139.547164,36.405481],[139.546883,36.405625],[139.546192,36.406272],[139.546118,36.406705],[139.545987,36.406761],[139.545528,36.407623],[139.545632,36.408688],[139.545584,36.409043],[139.545796,36.409511],[139.545841,36.409968],[139.545629,36.410442],[139.545975,36.4111],[139.546045,36.411081],[139.545702,36.411686],[139.544604,36.412725],[139.544424,36.413111],[139.543958,36.413396],[139.543869,36.41375],[139.543195,36.414627],[139.543036,36.414953],[139.543132,36.415945],[139.543476,36.416192],[139.54337,36.416533],[139.543474,36.417235],[139.54375,36.417662],[139.543382,36.418365],[139.543295,36.41874],[139.542625,36.4198],[139.541813,36.420361],[139.541314,36.420536],[139.5413,36.42049],[139.541248,36.420549],[139.541024,36.420518],[139.540987,36.420571],[139.540005,36.420255],[139.539427,36.420391],[139.539183,36.42038],[139.538696,36.420557],[139.538332,36.420387],[139.538071,36.420424],[139.537929,36.420523],[139.537361,36.420546],[139.537411,36.420599],[139.537493,36.420553],[139.537394,36.420559],[139.53745,36.420549],[139.537352,36.420601],[139.537372,36.420547],[139.536999,36.421273],[139.536854,36.421297],[139.536186,36.421744],[139.535861,36.421788],[139.535777,36.421738],[139.535304,36.421883],[139.534941,36.422095],[139.534579,36.422473],[139.534554,36.422694],[139.534061,36.423647],[139.533715,36.423919],[139.533195,36.42409],[139.533148,36.424204],[139.532426,36.424682],[139.53231,36.424921],[139.532298,36.425201],[139.532203,36.425268],[139.532151,36.425861],[139.532003,36.426065],[139.531569,36.426325],[139.531532,36.426459],[139.531372,36.426472],[139.531375,36.426675],[139.530947,36.427008],[139.53086,36.427383],[139.530239,36.427889],[139.530227,36.428441],[139.52986,36.429341],[139.529226,36.429545],[139.527808,36.430619],[139.527458,36.430719],[139.527275,36.430967],[139.527102,36.431694],[139.52647,36.432569],[139.526149,36.432708],[139.525393,36.432724],[139.525023,36.432651],[139.524842,36.432683],[139.52415,36.433082],[139.523726,36.433426],[139.522922,36.434303],[139.522861,36.434842],[139.523014,36.435497],[139.523207,36.435677],[139.523062,36.436016],[139.52282,36.436216],[139.522375,36.436997],[139.522356,36.437171],[139.522582,36.437698],[139.523499,36.438895],[139.524073,36.439459],[139.524278,36.440224],[139.524553,36.44053],[139.524588,36.440918],[139.524481,36.440934],[139.524442,36.44134],[139.524304,36.441507],[139.523804,36.441724],[139.523707,36.441697],[139.523732,36.442014],[139.523607,36.442009],[139.523593,36.44207],[139.523313,36.442112],[139.523325,36.442252],[139.522596,36.442608],[139.522461,36.442761],[139.522542,36.442853],[139.522439,36.442866],[139.52235,36.443151],[139.521943,36.443336],[139.521437,36.443714],[139.521274,36.443991],[139.52034,36.4445],[139.520222,36.444629],[139.520172,36.444918],[139.519827,36.445236],[139.519873,36.445186],[139.519221,36.444956],[139.519209,36.444844],[139.518706,36.444567],[139.518114,36.444528],[139.517961,36.443556],[139.518082,36.444505],[139.517606,36.444913],[139.51707,36.44474],[139.516499,36.444755],[139.51579,36.445085],[139.514434,36.445436],[139.513864,36.446157],[139.513329,36.446453],[139.513061,36.446709],[139.512536,36.447829],[139.512597,36.448032],[139.512611,36.447964],[139.512365,36.447855],[139.512566,36.448355],[139.512427,36.448852],[139.512469,36.449342],[139.512246,36.449611],[139.512195,36.449563],[139.511731,36.44971],[139.511534,36.450051],[139.5116,36.450154],[139.511449,36.450148],[139.511335,36.450311],[139.511349,36.451639],[139.510849,36.452326],[139.510199,36.452599],[139.510247,36.452568],[139.510223,36.452625],[139.509677,36.452501],[139.508424,36.453189],[139.508008,36.453266],[139.50674,36.452914],[139.506067,36.453314],[139.50557,36.453096],[139.504728,36.453246],[139.504343,36.453189],[139.504066,36.453399],[139.503294,36.453617],[139.502586,36.453672],[139.501544,36.454151],[139.501578,36.454507],[139.501315,36.454936],[139.501305,36.455554],[139.501186,36.455831],[139.501204,36.456657],[139.500817,36.457491],[139.5008,36.457844],[139.500543,36.458177],[139.49987,36.458419],[139.499382,36.458377],[139.498738,36.45816],[139.498309,36.458219],[139.497829,36.458664],[139.497867,36.458622],[139.497384,36.459124],[139.497365,36.459635],[139.496717,36.460042],[139.496088,36.460268],[139.495591,36.460606],[139.495266,36.461078],[139.494693,36.461389],[139.494253,36.46177],[139.493995,36.462281],[139.49345,36.462645],[139.493163,36.462995],[139.492897,36.463873],[139.492628,36.464265],[139.492576,36.464598],[139.492456,36.464723],[139.492314,36.465865],[139.491394,36.46687],[139.491258,36.467381],[139.491292,36.468169],[139.491091,36.468758],[139.490766,36.469071],[139.490628,36.469322],[139.490747,36.469844],[139.49069,36.469896],[139.490636,36.469811],[139.490691,36.469882],[139.490427,36.469708],[139.490043,36.469751],[139.489938,36.469848],[139.489745,36.469858],[139.489037,36.469474],[139.4889,36.469511],[139.488875,36.469425],[139.488549,36.46937],[139.487996,36.469503],[139.487609,36.469515],[139.487613,36.469635],[139.487208,36.469874],[139.486965,36.469848],[139.486669,36.469941],[139.48666,36.470066],[139.486249,36.470216],[139.48531,36.470347],[139.485137,36.470271],[139.483666,36.470247],[139.483171,36.47032],[139.483121,36.470161],[139.483448,36.470175],[139.483741,36.469939],[139.484245,36.46993],[139.484446,36.469822],[139.484635,36.469416],[139.484403,36.469105],[139.484791,36.469008],[139.484918,36.468823],[139.485172,36.468854],[139.485402,36.46904],[139.48558,36.469029],[139.485639,36.468889],[139.485373,36.468645],[139.484944,36.468527],[139.484449,36.468494],[139.484203,36.468563],[139.483957,36.468825],[139.483797,36.469258],[139.48369,36.469261],[139.483534,36.468945],[139.482693,36.468025],[139.482228,36.467829],[139.481711,36.467956],[139.481588,36.468149],[139.481735,36.468636],[139.481758,36.469207],[139.481611,36.469243],[139.481453,36.468552],[139.481244,36.468343],[139.481303,36.468265],[139.481198,36.468169],[139.481385,36.46742],[139.481263,36.46698],[139.480812,36.46654],[139.480146,36.466238],[139.479773,36.466201],[139.479218,36.465808],[139.478504,36.465627],[139.478228,36.465321],[139.477546,36.463754],[139.47668,36.46295],[139.476417,36.4629],[139.474828,36.463039],[139.474633,36.462972],[139.47373,36.46188],[139.473528,36.461481],[139.473378,36.460346],[139.473124,36.459996],[139.472685,36.459777],[139.472451,36.459341],[139.471815,36.458712],[139.471713,36.458753],[139.471533,36.45857],[139.470213,36.458027],[139.470013,36.458008],[139.469791,36.458276],[139.469218,36.459454],[139.468943,36.459691],[139.468452,36.460447],[139.46797,36.46071],[139.468014,36.460863],[139.467648,36.461346],[139.467286,36.461581],[139.467173,36.461852],[139.466496,36.461605]]},"type":"Feature"},{"geometry":{"coordinates":[139.553511,36.379097],"type":"Point"},"properties":{"_iconUrl":"symbols/Pin_Green.png","_iconSize":[24,24],"_iconAnchor":[12,12],"name":"三床山入口"},"type":"Feature"},{"type":"Feature","properties":{"_iconSize":[24,24],"_iconUrl":"symbols/Pin_Green.png","name":"鹿嶋神社","_iconAnchor":[12,12]},"geometry":{"type":"Point","coordinates":[139.555278,36.386814]}},{"type":"Feature","properties":{"_iconAnchor":[12,12],"標高":"335m","name":"三床山","_iconUrl":"symbols/Summit.png","_iconSize":[24,24]},"geometry":{"coordinates":[139.5548,36.396036],"type":"Point"}},{"geometry":{"coordinates":[139.551572,36.397783],"type":"Point"},"properties":{"_iconUrl":"symbols/Summit.png","_iconSize":[24,24],"_iconAnchor":[12,12],"name":"小三床山"},"type":"Feature"},{"type":"Feature","properties":{"_iconUrl":"symbols/Pin_Green.png","_iconSize":[24,24],"_iconAnchor":[12,12],"name":"栗谷坂峠"},"geometry":{"type":"Point","coordinates":[139.550492,36.398794]}},{"geometry":{"coordinates":[139.549964,36.399769],"type":"Point"},"properties":{"_iconUrl":"symbols/Summit.png","_iconSize":[24,24],"_iconAnchor":[12,12],"name":"烏ヶ岳","標高":"334m"},"type":"Feature"},{"properties":{"_iconAnchor":[12,12],"name":"つつじ山","_iconUrl":"symbols/Summit.png","_iconSize":[24,24]},"geometry":{"type":"Point","coordinates":[139.549389,36.403214]},"type":"Feature"},{"type":"Feature","geometry":{"type":"Point","coordinates":[139.547025,36.404108]},"properties":{"_iconAnchor":[12,12],"name":"桜山","_iconUrl":"symbols/Summit.png","_iconSize":[24,24]}},{"type":"Feature","geometry":{"coordinates":[139.547161,36.405503],"type":"Point"},"properties":{"_iconSize":[24,24],"_iconUrl":"symbols/Summit.png","name":"大姫山","_iconAnchor":[12,12]}},{"type":"Feature","properties":{"_iconUrl":"symbols/Pin_Green.png","_iconSize":[24,24],"_iconAnchor":[12,12],"name":"長沢峠"},"geometry":{"coordinates":[139.546119,36.406706],"type":"Point"}},{"type":"Feature","properties":{"name":"天ヶ岳","標高":"325m","_iconAnchor":[12,12],"_iconSize":[24,24],"_iconUrl":"symbols/Summit.png"},"geometry":{"coordinates":[139.545008,36.412372],"type":"Point"}},{"properties":{"_iconSize":[24,24],"_iconUrl":"symbols/Scenic_Area.png","name":"展望台","_iconAnchor":[12,12]},"geometry":{"type":"Point","coordinates":[139.540067,36.420275]},"type":"Feature"},{"type":"Feature","properties":{"_iconAnchor":[12,12],"標高":"405m","name":"林山","_iconUrl":"symbols/Summit.png","_iconSize":[24,24]},"geometry":{"coordinates":[139.537428,36.420528],"type":"Point"}},{"type":"Feature","properties":{"name":"展望岩（蛙岩）","_iconAnchor":[12,12],"_iconSize":[24,24],"_iconUrl":"symbols/Scenic_Area.png"},"geometry":{"coordinates":[139.536789,36.421389],"type":"Point"}},{"type":"Feature","geometry":{"coordinates":[139.534072,36.423658],"type":"Point"},"properties":{"_iconSize":[24,24],"_iconUrl":"symbols/Pin_Green.png","name":"六地蔵峠","_iconAnchor":[12,12]}},{"type":"Feature","geometry":{"type":"Point","coordinates":[139.531372,36.426472]},"properties":{"_iconSize":[24,24],"_iconUrl":"symbols/Pin_Green.png","name":"石祠","_iconAnchor":[12,12]}},{"properties":{"name":"金原山","標高":"427m","_iconAnchor":[12,12],"_iconSize":[24,24],"_iconUrl":"symbols/Summit.png"},"geometry":{"coordinates":[139.529978,36.429136],"type":"Point"},"type":"Feature"},{"type":"Feature","geometry":{"coordinates":[139.52615,36.432708],"type":"Point"},"properties":{"name":"林道長谷場閑馬線","_iconAnchor":[12,12],"_iconSize":[24,24],"_iconUrl":"symbols/Pin_Green.png"}},{"geometry":{"type":"Point","coordinates":[139.524569,36.440853]},"properties":{"_iconUrl":"symbols/Summit.png","_iconSize":[24,24],"_iconAnchor":[12,12],"name":"P1"},"type":"Feature"},{"type":"Feature","properties":{"_iconSize":[24,24],"_iconUrl":"symbols/Summit.png","name":"P4","_iconAnchor":[12,12]},"geometry":{"coordinates":[139.523292,36.442175],"type":"Point"}},{"type":"Feature","geometry":{"type":"Point","coordinates":[139.522361,36.443106]},"properties":{"_iconSize":[24,24],"_iconUrl":"symbols/Summit.png","name":"P6","_iconAnchor":[12,12]}},{"properties":{"_iconSize":[24,24],"_iconUrl":"symbols/Pin_Green.png","name":"石祠","_iconAnchor":[12,12]},"geometry":{"coordinates":[139.517961,36.443556],"type":"Point"},"type":"Feature"},{"type":"Feature","geometry":{"type":"Point","coordinates":[139.512581,36.448]},"properties":{"name":"岩場","_iconAnchor":[12,12],"_iconSize":[24,24],"_iconUrl":"symbols/Pin_Green.png"}},{"type":"Feature","geometry":{"coordinates":[139.511453,36.450156],"type":"Point"},"properties":{"name":"岩場","_iconAnchor":[12,12],"_iconSize":[24,24],"_iconUrl":"symbols/Pin_Green.png"}},{"type":"Feature","properties":{"_iconSize":[24,24],"_iconUrl":"symbols/Summit.png","name":"高鳥屋山","標高":"514m","_iconAnchor":[12,12]},"geometry":{"type":"Point","coordinates":[139.510278,36.452611]}},{"geometry":{"type":"Point","coordinates":[139.501581,36.454186]},"properties":{"_iconUrl":"symbols/Summit.png","_iconSize":[24,24],"_iconAnchor":[12,12],"標高":"516m","name":"516m標高点"},"type":"Feature"},{"properties":{"_iconAnchor":[12,12],"name":"石祠","_iconUrl":"symbols/Pin_Green.png","_iconSize":[24,24]},"geometry":{"type":"Point","coordinates":[139.48855,36.469369]},"type":"Feature"},{"properties":{"name":"近沢峠","_iconAnchor":[12,12],"_iconSize":[24,24],"_iconUrl":"symbols/Pin_Green.png"},"geometry":{"coordinates":[139.486661,36.470067],"type":"Point"},"type":"Feature"},{"type":"Feature","geometry":{"coordinates":[139.466494,36.461606],"type":"Point"},"properties":{"name":"根古屋森林公園駐車場","駐車":"50台","_iconAnchor":[12,12],"_iconSize":[24,24],"_iconUrl":"symbols/Parking_Area.png"}}]}
