{"type":"FeatureCollection","bbox":[139.622252,36.298178,139.637627,36.325418],"features":[{"type":"Feature","geometry":{"coordinates":[[139.625431,36.298178],[139.62591,36.298211],[139.626319,36.29853],[139.626245,36.298617],[139.626362,36.298653],[139.626461,36.298819],[139.626356,36.299118],[139.626449,36.299412],[139.626635,36.299294],[139.626676,36.300189],[139.626581,36.300473],[139.626485,36.300516],[139.62654,36.300673],[139.626194,36.30194],[139.625938,36.3025],[139.625271,36.302481],[139.62514,36.30239],[139.624555,36.302532],[139.623955,36.301888],[139.623998,36.301807],[139.62407,36.301843],[139.623966,36.301716],[139.623907,36.301753],[139.623662,36.301578],[139.623732,36.30159],[139.623096,36.301712],[139.622252,36.301535],[139.623113,36.301968],[139.623694,36.30192],[139.623824,36.301995],[139.624208,36.302594],[139.624544,36.302602],[139.624907,36.302394],[139.625806,36.302458],[139.62591,36.302654],[139.6258,36.302959],[139.6258,36.30356],[139.625628,36.30379],[139.625646,36.304372],[139.625903,36.305043],[139.625855,36.3054],[139.625188,36.30607],[139.625003,36.306493],[139.625084,36.30663],[139.625009,36.306666],[139.624984,36.306937],[139.624878,36.306951],[139.625243,36.3074],[139.625646,36.30767],[139.625614,36.307804],[139.625717,36.307837],[139.62629,36.308565],[139.626204,36.308648],[139.626707,36.308582],[139.626959,36.308676],[139.62753,36.309218],[139.627526,36.309473],[139.627138,36.310441],[139.627529,36.31165],[139.627162,36.312875],[139.62728,36.313345],[139.627887,36.313991],[139.62841,36.314836],[139.62899,36.315335],[139.629299,36.315974],[139.629249,36.315945],[139.630462,36.316997],[139.630597,36.31757],[139.630533,36.317852],[139.630593,36.319088],[139.631148,36.318738],[139.631676,36.318776],[139.63167,36.319032],[139.631789,36.319266],[139.631717,36.319334],[139.631971,36.319769],[139.632015,36.320219],[139.631901,36.32055],[139.63198,36.320604],[139.631811,36.320779],[139.631918,36.320806],[139.631953,36.320914],[139.631838,36.32103],[139.631884,36.321075],[139.631713,36.321216],[139.631753,36.32137],[139.631675,36.321415],[139.6317,36.321615],[139.631469,36.321733],[139.631246,36.321979],[139.631239,36.322253],[139.631418,36.322605],[139.631182,36.323021],[139.631255,36.323015],[139.631406,36.323344],[139.631318,36.323585],[139.631482,36.323891],[139.631383,36.323988],[139.631431,36.32429]],"type":"LineString"},"properties":{"_dashArray":"3,6","_weight":3,"_color":"#ff0000","_opacity":0.5}},{"type":"Feature","properties":{"_dashArray":"3,6","_color":"#0000ff","_weight":3,"_opacity":0.5},"geometry":{"type":"LineString","coordinates":[[139.631448,36.324305],[139.63166,36.324325],[139.631902,36.323996],[139.632431,36.324222],[139.63279,36.324746],[139.632572,36.324843],[139.632762,36.325418],[139.634651,36.325185],[139.636406,36.324786],[139.637194,36.324457],[139.637045,36.324012],[139.637399,36.320007],[139.637392,36.318568],[139.637579,36.318548],[139.637627,36.318105],[139.63696,36.315057],[139.636977,36.314816],[139.636722,36.314012],[139.636597,36.313141],[139.634699,36.311677],[139.634403,36.311372],[139.633575,36.310167],[139.633486,36.309872],[139.633232,36.309537],[139.633054,36.309479],[139.632308,36.309677],[139.631941,36.309686],[139.631802,36.310188],[139.631822,36.310508],[139.631481,36.310695],[139.631421,36.31087],[139.631482,36.311339],[139.631232,36.311563],[139.630669,36.311713],[139.630902,36.311619],[139.630559,36.311075],[139.631321,36.310406],[139.631503,36.31044],[139.631382,36.310272],[139.631574,36.310035],[139.631374,36.309863],[139.631324,36.309457],[139.630846,36.308635],[139.630707,36.308219],[139.630633,36.308207],[139.630559,36.307719],[139.631555,36.307113],[139.631459,36.306507],[139.63095,36.305755],[139.629983,36.305154],[139.629726,36.304871],[139.629028,36.304569],[139.628721,36.304072],[139.628528,36.304032],[139.628497,36.303949],[139.628952,36.303861],[139.629129,36.303716],[139.629183,36.303206],[139.628949,36.302756],[139.629102,36.302209],[139.628844,36.301611],[139.628837,36.301311],[139.628497,36.300763],[139.628002,36.300511],[139.62748,36.300389],[139.626494,36.300468],[139.626011,36.300342],[139.625768,36.300141],[139.626231,36.299542],[139.626244,36.299252],[139.626349,36.299143],[139.626197,36.298755],[139.626248,36.298531],[139.626178,36.29838],[139.625715,36.29821]]}},{"geometry":{"coordinates":[139.625431,36.298178],"type":"Point"},"properties":{"name":"南口駐車場","_iconAnchor":[12,12],"駐車":"215台","_iconSize":[24,24],"_iconUrl":"symbols/Parking_Area.png"},"type":"Feature"},{"properties":{"_iconAnchor":[12,12],"name":"日本武尊の足跡石","_iconUrl":"symbols/Pin_Green.png","_iconSize":[24,24]},"geometry":{"coordinates":[139.626469,36.300922],"type":"Point"},"type":"Feature"},{"properties":{"_iconUrl":"symbols/Pin_Green.png","_iconSize":[24,24],"_iconAnchor":[12,12],"name":"三毳神社奥宮"},"geometry":{"coordinates":[139.625953,36.302331],"type":"Point"},"type":"Feature"},{"properties":{"name":"硯石","_iconAnchor":[12,12],"_iconSize":[24,24],"_iconUrl":"symbols/Pin_Green.png"},"geometry":{"type":"Point","coordinates":[139.625139,36.302389]},"type":"Feature"},{"properties":{"_iconAnchor":[12,12],"name":"琴平神社・天狗岩","_iconUrl":"symbols/Pin_Green.png","_iconSize":[24,24]},"geometry":{"coordinates":[139.624039,36.301828],"type":"Point"},"type":"Feature"},{"type":"Feature","geometry":{"coordinates":[139.623681,36.301611],"type":"Point"},"properties":{"_iconUrl":"symbols/Scenic_Area.png","_iconSize":[24,24],"_iconAnchor":[12,12],"name":"富士見台"}},{"type":"Feature","properties":{"name":"蝋燭岩","_iconAnchor":[12,12],"_iconSize":[24,24],"_iconUrl":"symbols/Pin_Green.png"},"geometry":{"coordinates":[139.625628,36.303789],"type":"Point"}},{"type":"Feature","properties":{"_iconUrl":"symbols/Summit.png","_iconSize":[24,24],"_iconAnchor":[12,12],"name":"中岳","標高":"210m"},"geometry":{"type":"Point","coordinates":[139.625861,36.305378]}},{"geometry":{"type":"Point","coordinates":[139.624878,36.30695]},"properties":{"_iconAnchor":[12,12],"name":"犬石","_iconUrl":"symbols/Pin_Green.png","_iconSize":[24,24]},"type":"Feature"},{"geometry":{"type":"Point","coordinates":[139.626258,36.3086]},"properties":{"_iconSize":[24,24],"_iconUrl":"symbols/Pin_Green.png","name":"花籠岩","_iconAnchor":[12,12]},"type":"Feature"},{"type":"Feature","geometry":{"type":"Point","coordinates":[139.629294,36.315953]},"properties":{"_iconAnchor":[12,12],"name":"青竜ヶ岳","標高":"229m","_iconUrl":"symbols/Summit.png","_iconSize":[24,24]}},{"properties":{"_iconSize":[24,24],"_iconUrl":"symbols/Scenic_Area.png","name":"カタクリ群生地","_iconAnchor":[12,12]},"geometry":{"coordinates":[139.631753,36.321369],"type":"Point"},"type":"Feature"},{"type":"Feature","properties":{"_iconUrl":"symbols/Parking_Area.png","_iconSize":[24,24],"_iconAnchor":[12,12],"name":"管理センター"},"geometry":{"type":"Point","coordinates":[139.631447,36.324306]}},{"geometry":{"type":"Point","coordinates":[139.631472,36.310461]},"properties":{"_iconAnchor":[12,12],"name":"湿性自然植物園","_iconUrl":"symbols/Pin_Green.png","_iconSize":[24,24]},"type":"Feature"},{"geometry":{"type":"Point","coordinates":[139.630728,36.307575]},"properties":{"_iconAnchor":[12,12],"name":"野草の園","_iconUrl":"symbols/Scenic_Area.png","_iconSize":[24,24]},"type":"Feature"},{"properties":{"_iconAnchor":[12,12],"name":"カタクリ群生地","_iconUrl":"symbols/Scenic_Area.png","_iconSize":[24,24]},"geometry":{"type":"Point","coordinates":[139.628719,36.304072]},"type":"Feature"}]}
