{"bbox":[139.361134,36.39386,139.37665,36.409781],"type":"FeatureCollection","features":[{"type":"Feature","properties":{"_color":"#ff0000","_weight":3,"_dashArray":"3,6","_opacity":0.5},"geometry":{"type":"LineString","coordinates":[[139.369696,36.398629],[139.369724,36.398844],[139.36963,36.398836],[139.36975,36.399804],[139.368668,36.400931],[139.368671,36.401082],[139.368813,36.401026],[139.368528,36.401131],[139.368645,36.401039],[139.368775,36.40129],[139.368851,36.401248],[139.368746,36.40132],[139.368814,36.401186],[139.368951,36.40129],[139.369262,36.401155],[139.369365,36.401031],[139.36957,36.401136],[139.369439,36.401321],[139.369557,36.401467],[139.370056,36.401596],[139.370236,36.401854],[139.371138,36.402435],[139.371488,36.402489],[139.371394,36.402458],[139.371788,36.402556],[139.372326,36.402902],[139.372464,36.402713],[139.372278,36.403253],[139.37274,36.40354],[139.373114,36.403671],[139.37283,36.404163],[139.37284,36.40459],[139.372694,36.404957],[139.372265,36.405166],[139.372318,36.405185],[139.371411,36.405489],[139.370956,36.405508],[139.370644,36.405643],[139.370294,36.405539],[139.370244,36.405452],[139.369369,36.405061],[139.368871,36.404962],[139.368811,36.404871],[139.368274,36.404845],[139.36828,36.40478],[139.367975,36.404663],[139.367934,36.404584],[139.36804,36.404517],[139.368013,36.404424],[139.368429,36.404259],[139.368273,36.40369],[139.367811,36.40356],[139.367775,36.403333],[139.367548,36.403165],[139.367423,36.403215],[139.367139,36.403058],[139.367198,36.402972],[139.366963,36.402803],[139.366768,36.402341],[139.366814,36.401917],[139.366723,36.401662],[139.366093,36.401118],[139.365799,36.401073],[139.365789,36.400699],[139.365394,36.400092],[139.365408,36.399809],[139.364988,36.399548],[139.364908,36.399401],[139.364968,36.399273],[139.364852,36.399215],[139.364933,36.399008],[139.36488,36.39871],[139.364986,36.398444],[139.364928,36.398423],[139.365204,36.397611],[139.365091,36.39736],[139.365161,36.397326],[139.365171,36.396739],[139.365426,36.39625],[139.365842,36.396137],[139.366624,36.39575],[139.366585,36.395791],[139.366656,36.395671],[139.366813,36.395633],[139.366972,36.395477],[139.366924,36.395643],[139.366867,36.395593],[139.366704,36.39565],[139.3669,36.395543],[139.366867,36.395632],[139.367281,36.395266],[139.367423,36.395277],[139.367527,36.395191],[139.367534,36.394949],[139.36762,36.394992],[139.367688,36.394928],[139.367663,36.395009],[139.367697,36.394805],[139.367807,36.394964],[139.367924,36.394962],[139.367907,36.394891],[139.36795,36.394976],[139.368008,36.394954],[139.368507,36.395589],[139.368518,36.396229],[139.36851,36.396178],[139.368587,36.397243],[139.369048,36.397745],[139.370184,36.39841],[139.37009,36.398428],[139.370147,36.398428]]}},{"properties":{"_opacity":0.5,"_weight":3,"_color":"#ff0000","_dashArray":"3,6"},"geometry":{"type":"LineString","coordinates":[[139.361947,36.393972],[139.361974,36.394092],[139.362095,36.394157],[139.362235,36.394091],[139.362378,36.394154],[139.362447,36.394297],[139.362249,36.394521],[139.361985,36.39454],[139.361982,36.394908],[139.361494,36.394963],[139.361221,36.395096],[139.361157,36.395245],[139.361656,36.39517],[139.362316,36.395244],[139.362379,36.395333],[139.362183,36.395486],[139.361451,36.39564],[139.361404,36.39571],[139.361933,36.395866],[139.36144,36.396037],[139.361458,36.396103],[139.361682,36.39607],[139.361696,36.396298],[139.361518,36.396365],[139.361424,36.396336],[139.36127,36.396436],[139.361295,36.396509],[139.361179,36.396619]]},"type":"Feature"},{"geometry":{"coordinates":[[139.361178,36.396619],[139.361584,36.396473],[139.361652,36.396101],[139.361461,36.396041],[139.361865,36.395907],[139.361864,36.395828],[139.361411,36.395668],[139.361826,36.395599],[139.362354,36.395347],[139.362283,36.395255],[139.361684,36.395143],[139.361172,36.395228],[139.361134,36.395164],[139.361274,36.395005],[139.361227,36.394958],[139.361952,36.394915],[139.362061,36.394486],[139.362253,36.394494],[139.36244,36.394292],[139.362365,36.394148],[139.362009,36.39413],[139.361934,36.393995],[139.36198,36.39386]],"type":"LineString"},"properties":{"_dashArray":"3,6","_color":"#0000ff","_weight":3,"_opacity":0.5},"type":"Feature"},{"type":"Feature","geometry":{"coordinates":[139.369572,36.401439],"type":"Point"},"properties":{"_iconAnchor":[12,12],"name":"一心霊神","_iconUrl":"symbols/Pin_Green.png","_iconSize":[24,24]}},{"geometry":{"coordinates":[139.373083,36.403761],"type":"Point"},"properties":{"name":"火産神社","_iconAnchor":[12,12],"_iconSize":[24,24],"_iconUrl":"symbols/Pin_Green.png"},"type":"Feature"},{"properties":{"_iconSize":[24,24],"*":"七合五勺","_iconUrl":"symbols/Pin_Green.png","name":"亀磐龍神","_iconAnchor":[12,12]},"geometry":{"type":"Point","coordinates":[139.366703,36.39565]},"type":"Feature"},{"geometry":{"coordinates":[139.370061,36.401656],"type":"Point"},"properties":{"_iconUrl":"symbols/Pin_Green.png","_iconSize":[24,24],"_iconAnchor":[12,12],"name":"金比羅神社"},"type":"Feature"},{"type":"Feature","properties":{"_iconUrl":"symbols/Summit.png","_iconSize":[24,24],"_iconAnchor":[12,12],"name":"桂山","標高":"281m"},"geometry":{"type":"Point","coordinates":[139.365417,36.399817]}},{"properties":{"標高":"380m","name":"御嶽山（姥穴山）","_iconAnchor":[12,12],"_iconSize":[24,24],"_iconUrl":"symbols/Summit.png"},"geometry":{"type":"Point","coordinates":[139.372292,36.405111]},"type":"Feature"},{"type":"Feature","properties":{"_iconUrl":"symbols/Pin_Green.png","_iconSize":[24,24],"_iconAnchor":[12,12],"name":"庚申塔"},"geometry":{"type":"Point","coordinates":[139.367986,36.394944]}},{"type":"Feature","geometry":{"coordinates":[139.366953,36.395583],"type":"Point"},"properties":{"name":"高尾山飯縄善神","_iconAnchor":[12,12],"_iconSize":[24,24],"_iconUrl":"symbols/Pin_Green.png"}},{"type":"Feature","geometry":{"type":"Point","coordinates":[139.361683,36.396069]},"properties":{"_iconAnchor":[12,12],"name":"作業道終点","_iconUrl":"symbols/Pin_Green.png","_iconSize":[24,24]}},{"type":"Feature","geometry":{"coordinates":[139.372625,36.403514],"type":"Point"},"properties":{"name":"三笠山大神","_iconAnchor":[12,12],"_iconSize":[24,24],"_iconUrl":"symbols/Pin_Red.png"}},{"type":"Feature","properties":{"_iconUrl":"symbols/Pin_Green.png","_iconSize":[24,24],"_iconAnchor":[12,12],"name":"大江女護神"},"geometry":{"type":"Point","coordinates":[139.372894,36.404144]}},{"geometry":{"type":"Point","coordinates":[139.370147,36.398428]},"properties":{"_iconUrl":"symbols/Parking_Area.png","_iconSize":[24,24],"_iconAnchor":[12,12],"駐車":"3台","name":"駐車地点"},"type":"Feature"},{"properties":{"標高":"210m","name":"鳶山","_iconAnchor":[12,12],"_iconSize":[24,24],"_iconUrl":"symbols/Summit.png"},"geometry":{"coordinates":[139.361178,36.396619],"type":"Point"},"type":"Feature"},{"type":"Feature","properties":{"_iconAnchor":[12,12],"name":"白葉峠","_iconUrl":"symbols/Trail_Head.png","_iconSize":[24,24]},"geometry":{"coordinates":[139.37665,36.409781],"type":"Point"}},{"type":"Feature","properties":{"name":"八海山大神","_iconAnchor":[12,12],"_iconSize":[24,24],"_iconUrl":"symbols/Pin_Red.png"},"geometry":{"coordinates":[139.371422,36.402433],"type":"Point"}},{"geometry":{"coordinates":[139.361981,36.393861],"type":"Point"},"properties":{"_iconSize":[24,24],"_iconUrl":"symbols/Pin_Green.png","name":"菱風園バス停","_iconAnchor":[12,12]},"type":"Feature"},{"geometry":{"coordinates":[139.366317,36.395917],"type":"Point"},"properties":{"_iconSize":[24,24],"_iconUrl":"symbols/Pin_Green.png","name":"富士山","_iconAnchor":[12,12]},"type":"Feature"},{"type":"Feature","geometry":{"coordinates":[139.367481,36.395136],"type":"Point"},"properties":{"_iconSize":[24,24],"_iconUrl":"symbols/Pin_Green.png","*":"三合","name":"冨士森稲荷大神","_iconAnchor":[12,12]}},{"properties":{"_iconAnchor":[12,12],"name":"武尊大権現","_iconUrl":"symbols/Pin_Green.png","_iconSize":[24,24]},"geometry":{"coordinates":[139.372817,36.404756],"type":"Point"},"type":"Feature"},{"geometry":{"coordinates":[139.365447,36.396267],"type":"Point"},"properties":{"標高":"225m","name":"雷電山","_iconAnchor":[12,12],"_iconSize":[24,24],"_iconUrl":"symbols/Summit.png"},"type":"Feature"},{"geometry":{"coordinates":[139.368528,36.401131],"type":"Point"},"properties":{"_iconUrl":"symbols/Pin_Green.png","_iconSize":[24,24],"_iconAnchor":[12,12],"name":"竜頭"},"type":"Feature"}]}
