{"bbox":[139.309312,36.427261,139.350942,36.447482],"type":"FeatureCollection","features":[{"properties":{"_opacity":0.5,"_dashArray":"3,6","_color":"#ff0000","_weight":3},"geometry":{"coordinates":[[139.309322,36.430422],[139.309433,36.430569],[139.309703,36.430616],[139.309312,36.430959],[139.30969,36.430647],[139.309936,36.430644],[139.309793,36.430732],[139.309517,36.43131],[139.309989,36.431865],[139.310534,36.433011],[139.31091,36.433416],[139.311224,36.433611],[139.311452,36.433927],[139.311861,36.434283],[139.311871,36.435277],[139.312075,36.435732],[139.31208,36.43631],[139.311956,36.436432],[139.311965,36.436589],[139.312263,36.436793],[139.312192,36.437086],[139.312363,36.437006],[139.312311,36.43717],[139.312463,36.43714],[139.312441,36.437207],[139.312747,36.437347],[139.312927,36.437539],[139.313123,36.43821],[139.313121,36.438553],[139.313315,36.438837],[139.31332,36.439282],[139.313343,36.439207],[139.313283,36.439394],[139.313333,36.439878],[139.313745,36.440448],[139.313951,36.440533],[139.313898,36.440734],[139.314312,36.44175],[139.314792,36.442259],[139.315318,36.44233],[139.315972,36.442874],[139.316296,36.44304],[139.316802,36.443125],[139.317132,36.443001],[139.317552,36.442968],[139.317825,36.443047],[139.317922,36.443271],[139.318083,36.443287],[139.318237,36.443209],[139.318417,36.443257],[139.318709,36.443049],[139.318734,36.44284],[139.319354,36.442845],[139.319644,36.442943],[139.319936,36.442816],[139.320226,36.442983],[139.320888,36.443792],[139.321726,36.444149],[139.322103,36.444151],[139.322377,36.444246],[139.323012,36.4443],[139.323187,36.444555],[139.323382,36.445173],[139.322818,36.446158],[139.323264,36.446496],[139.323588,36.446543],[139.324479,36.446494],[139.325109,36.446783],[139.325266,36.447035],[139.325574,36.447191],[139.326312,36.447354],[139.326585,36.447294],[139.326836,36.447326],[139.327186,36.447238],[139.327443,36.447282],[139.3277,36.44743],[139.328163,36.447482],[139.328608,36.447093],[139.329007,36.446876],[139.329532,36.44644],[139.329606,36.446279],[139.330102,36.445797],[139.329929,36.445847],[139.330105,36.445778],[139.330029,36.44579],[139.330081,36.44591],[139.329925,36.445647],[139.330066,36.445845],[139.329999,36.445759],[139.330066,36.445736],[139.330052,36.445786],[139.330095,36.445736],[139.330002,36.44579],[139.33001,36.445674],[139.330048,36.445763],[139.329948,36.445769],[139.330098,36.445787],[139.329979,36.445739],[139.330029,36.445856],[139.330003,36.44574],[139.330062,36.445793],[139.329935,36.445813],[139.33162,36.445956],[139.331955,36.445741],[139.3321,36.445519],[139.334064,36.444686],[139.33403,36.444641],[139.334584,36.444394],[139.334889,36.444486],[139.335355,36.444423],[139.335496,36.444141],[139.33624,36.443367],[139.336287,36.443014],[139.336183,36.443246],[139.336229,36.443357],[139.336464,36.443455],[139.336781,36.443812],[139.337641,36.443855],[139.338178,36.444196],[139.338434,36.444171],[139.338985,36.444383],[139.339295,36.444651],[139.339905,36.44488],[139.340133,36.445139],[139.340641,36.444795],[139.341652,36.445154],[139.34171,36.445233],[139.341923,36.445269],[139.342604,36.445065],[139.342548,36.445232],[139.342747,36.445064],[139.342673,36.445206],[139.342576,36.445003],[139.342675,36.444852],[139.342625,36.444725],[139.342691,36.444529],[139.342484,36.444063],[139.342236,36.443752],[139.3417,36.44334],[139.341665,36.442873],[139.341273,36.442602],[139.341015,36.441912],[139.340957,36.441402],[139.341146,36.441431],[139.341293,36.441168],[139.341657,36.44095],[139.341676,36.440832],[139.341522,36.440649],[139.341546,36.440425],[139.341958,36.440108],[139.342017,36.439782],[139.34213,36.43967],[139.343122,36.439417],[139.343432,36.43948],[139.343579,36.43936],[139.343772,36.438864],[139.344023,36.438766],[139.343986,36.438676],[139.343993,36.438751],[139.344053,36.438645],[139.344377,36.438819],[139.344558,36.438649],[139.344548,36.43851],[139.344631,36.438495],[139.344843,36.438966],[139.345227,36.439002],[139.345243,36.439059],[139.345576,36.439128],[139.345889,36.438944],[139.346033,36.438935],[139.346133,36.438817],[139.346509,36.438692],[139.346873,36.438783],[139.346929,36.438688],[139.347064,36.438833],[139.347134,36.438702],[139.347041,36.438442],[139.34728,36.438409],[139.347604,36.438124],[139.347936,36.437963],[139.348344,36.43788],[139.348904,36.437616],[139.349581,36.436584],[139.34964,36.43617],[139.350209,36.435383],[139.35019,36.435438],[139.350255,36.435195],[139.350454,36.435088],[139.350326,36.434758],[139.35044,36.434629],[139.350584,36.434651],[139.350414,36.434597],[139.350192,36.43466],[139.350051,36.434417],[139.349826,36.434484],[139.349661,36.434299],[139.349778,36.433485],[139.349494,36.433087],[139.349517,36.432805],[139.349439,36.432678],[139.349475,36.432417],[139.35002,36.43187],[139.350314,36.431877],[139.350942,36.431046],[139.350678,36.43065],[139.350536,36.430655],[139.350486,36.429958],[139.350369,36.429803],[139.350288,36.428834],[139.350615,36.427963],[139.35052,36.427708],[139.350554,36.427519],[139.350421,36.427403],[139.350315,36.427456],[139.350376,36.427429],[139.35028,36.427433],[139.350425,36.427342],[139.350338,36.427262]],"type":"LineString"},"type":"Feature"},{"geometry":{"type":"Point","coordinates":[139.350339,36.427261]},"properties":{"_iconUrl":"symbols/Pin_Green.png","_iconSize":[24,24],"_iconAnchor":[12,12],"name":"愛宕山鳥居"},"type":"Feature"},{"type":"Feature","properties":{"_iconAnchor":[12,12],"name":"愛宕山","標高":"166m","_iconUrl":"symbols/Summit.png","_iconSize":[24,24]},"geometry":{"type":"Point","coordinates":[139.350561,36.428025]}},{"geometry":{"type":"Point","coordinates":[139.350936,36.43105]},"properties":{"_iconAnchor":[12,12],"標高":"216m","name":"荒神山（経の峰）","_iconUrl":"symbols/Summit.png","_iconSize":[24,24]},"type":"Feature"},{"type":"Feature","geometry":{"type":"Point","coordinates":[139.349517,36.432806]},"properties":{"_iconUrl":"symbols/Pin_Green.png","_iconSize":[24,24],"_iconAnchor":[12,12],"name":"きのこ研究所"}},{"type":"Feature","geometry":{"coordinates":[139.350256,36.435194],"type":"Point"},"properties":{"_iconUrl":"symbols/Pin_Green.png","_iconSize":[24,24],"_iconAnchor":[12,12],"name":"ホテルきのこの森跡地"}},{"properties":{"_iconAnchor":[12,12],"name":"石祠","_iconUrl":"symbols/Pin_Green.png","_iconSize":[24,24]},"geometry":{"coordinates":[139.343986,36.438675],"type":"Point"},"type":"Feature"},{"type":"Feature","properties":{"_iconSize":[24,24],"_iconUrl":"symbols/Pin_Green.png","name":"きのこ研究所分岐","_iconAnchor":[12,12]},"geometry":{"coordinates":[139.340956,36.441403],"type":"Point"}},{"type":"Feature","properties":{"_iconAnchor":[12,12],"name":"鳳仙寺沢の頭","_iconUrl":"symbols/Pin_Green.png","_iconSize":[24,24]},"geometry":{"type":"Point","coordinates":[139.341669,36.443208]}},{"properties":{"_iconAnchor":[12,12],"name":"吾妻山～鳴神山縦走路","_iconUrl":"symbols/Pin_Green.png","_iconSize":[24,24]},"geometry":{"type":"Point","coordinates":[139.342608,36.445072]},"type":"Feature"},{"properties":{"_iconUrl":"symbols/Scenic_Area.png","_iconSize":[24,24],"_iconAnchor":[12,12],"name":"展望ピーク"},"geometry":{"type":"Point","coordinates":[139.336142,36.443461]},"type":"Feature"},{"properties":{"_iconSize":[24,24],"_iconUrl":"symbols/Pin_Green.png","標高":"355m","name":"自然観察の森最高点","_iconAnchor":[12,12]},"geometry":{"coordinates":[139.330022,36.445856],"type":"Point"},"type":"Feature"},{"geometry":{"coordinates":[139.3255,36.447156],"type":"Point"},"properties":{"name":"名久木坂","_iconAnchor":[12,12],"_iconSize":[24,24],"_iconUrl":"symbols/Pin_Green.png"},"type":"Feature"},{"type":"Feature","geometry":{"coordinates":[139.324506,36.446492],"type":"Point"},"properties":{"name":"霊符尊神","_iconAnchor":[12,12],"_iconSize":[24,24],"_iconUrl":"symbols/Pin_Green.png"}},{"geometry":{"type":"Point","coordinates":[139.322814,36.446092]},"properties":{"_iconAnchor":[12,12],"name":"笹久保山","標高":"362m","_iconUrl":"symbols/Summit.png","_iconSize":[24,24]},"type":"Feature"},{"properties":{"_iconAnchor":[12,12],"標高":"342m","name":"小倉山","_iconUrl":"symbols/Summit.png","_iconSize":[24,24]},"geometry":{"type":"Point","coordinates":[139.318764,36.442833]},"type":"Feature"},{"properties":{"_iconSize":[24,24],"_iconUrl":"symbols/Pin_Green.png","name":"花柄峠","_iconAnchor":[12,12]},"geometry":{"type":"Point","coordinates":[139.317447,36.442978]},"type":"Feature"},{"type":"Feature","geometry":{"coordinates":[139.313822,36.440514],"type":"Point"},"properties":{"_iconUrl":"symbols/Pin_Green.png","_iconSize":[24,24],"_iconAnchor":[12,12],"name":"稜線断絶"}},{"geometry":{"coordinates":[139.312625,36.43735],"type":"Point"},"properties":{"name":"経塚山","標高":"338m","_iconAnchor":[12,12],"_iconSize":[24,24],"_iconUrl":"symbols/Summit.png"},"type":"Feature"},{"properties":{"_iconUrl":"symbols/Pin_Green.png","_iconSize":[24,24],"_iconAnchor":[12,12],"name":"赤城神社"},"geometry":{"type":"Point","coordinates":[139.309544,36.430772]},"type":"Feature"},{"type":"Feature","geometry":{"coordinates":[139.309322,36.430422],"type":"Point"},"properties":{"_iconSize":[24,24],"_iconUrl":"symbols/Pin_Green.png","name":"むつみ橋入口バス停","_iconAnchor":[12,12]}}]}
