{"features":[{"properties":{"_iconAnchor":[12,12],"name":"駐車地","_iconUrl":"symbols/Pin_Green.png","_iconSize":[24,24]},"geometry":{"type":"Point","coordinates":[139.488356,36.380653]},"type":"Feature"},{"type":"Feature","geometry":{"coordinates":[139.48945,36.380458],"type":"Point"},"properties":{"_iconAnchor":[12,12],"name":"名草大坂の庚申塔","_iconUrl":"symbols/Pin_Green.png","_iconSize":[24,24]}},{"geometry":{"type":"Point","coordinates":[139.490558,36.387472]},"properties":{"標高":"232m","name":"232m標高点","_iconAnchor":[12,12],"_iconSize":[24,24],"_iconUrl":"symbols/Summit.png"},"type":"Feature"},{"geometry":{"type":"Point","coordinates":[139.487967,36.387961]},"properties":{"_iconAnchor":[12,12],"name":"石祠","_iconUrl":"symbols/Pin_Green.png","_iconSize":[24,24]},"type":"Feature"},{"type":"Feature","geometry":{"coordinates":[139.488433,36.390544],"type":"Point"},"properties":{"_iconUrl":"symbols/Pin_Green.png","_iconSize":[24,24],"_iconAnchor":[12,12],"name":"峠"}},{"properties":{"_iconSize":[24,24],"_iconUrl":"symbols/Pin_Green.png","name":"名草源氏ホタルの里","_iconAnchor":[12,12]},"geometry":{"type":"Point","coordinates":[139.493275,36.388719]},"type":"Feature"},{"type":"Feature","geometry":{"coordinates":[139.495722,36.3903],"type":"Point"},"properties":{"_iconUrl":"symbols/Pin_Green.png","_iconSize":[24,24],"_iconAnchor":[12,12],"name":"大坂峠入口"}},{"type":"Feature","geometry":{"coordinates":[139.496944,36.394339],"type":"Point"},"properties":{"_iconSize":[24,24],"_iconUrl":"symbols/Pin_Green.png","name":"大坂峠","_iconAnchor":[12,12]}},{"type":"Feature","geometry":{"coordinates":[139.498503,36.392592],"type":"Point"},"properties":{"_iconUrl":"symbols/Pin_Green.png","_iconSize":[24,24],"_iconAnchor":[12,12],"name":"石祠"}},{"geometry":{"type":"Point","coordinates":[139.500069,36.392031]},"properties":{"_iconUrl":"symbols/Summit.png","_iconSize":[24,24],"_iconAnchor":[12,12],"name":"258m標高点","標高":"258m"},"type":"Feature"},{"type":"Feature","geometry":{"coordinates":[139.503525,36.387194],"type":"Point"},"properties":{"標高":"363m","name":"山王山","_iconAnchor":[12,12],"_iconSize":[24,24],"_iconUrl":"symbols/Summit.png"}},{"type":"Feature","geometry":{"coordinates":[139.498739,36.386333],"type":"Point"},"properties":{"_iconSize":[24,24],"_iconUrl":"symbols/Summit.png","name":"大坂山","_iconAnchor":[12,12]}},{"geometry":{"type":"Point","coordinates":[139.493658,36.386008]},"properties":{"name":"第三駐車場","_iconAnchor":[12,12],"駐車":"50台","_iconSize":[24,24],"_iconUrl":"symbols/Parking_Area.png"},"type":"Feature"},{"type":"Feature","properties":{"_opacity":0.5,"name":"大坂峠～山王山～大坂山（復路）","_dashArray":"3,6","_color":"#0000ff","_weight":3},"geometry":{"type":"LineString","coordinates":[[139.503526,36.387195],[139.503487,36.38702],[139.503053,36.386998],[139.5028,36.386831],[139.502876,36.386748],[139.502686,36.386454],[139.502554,36.386571],[139.502508,36.386422],[139.502272,36.386483],[139.502251,36.38638],[139.501869,36.386428],[139.501605,36.386093],[139.501366,36.38625],[139.501383,36.386371],[139.50136,36.386209],[139.501612,36.386226],[139.501529,36.385994],[139.499897,36.385653],[139.499391,36.385806],[139.499095,36.386134],[139.498875,36.386176],[139.498742,36.38635],[139.498865,36.386374],[139.498708,36.386328],[139.498781,36.386427],[139.498884,36.386372],[139.498365,36.386485],[139.497459,36.385929],[139.496948,36.385446],[139.496394,36.385237],[139.495717,36.38521],[139.495559,36.385326],[139.495168,36.385262],[139.493666,36.385983],[139.493909,36.386195],[139.493712,36.386366],[139.493235,36.385942],[139.493068,36.386088],[139.493181,36.386476],[139.493079,36.386805],[139.493358,36.386688],[139.49347,36.386973],[139.493564,36.386957],[139.49377,36.387412],[139.492949,36.385969],[139.492311,36.385497],[139.491156,36.384005],[139.490592,36.383682],[139.489681,36.382068],[139.489394,36.381293],[139.488616,36.3808]]}},{"type":"Feature","geometry":{"coordinates":[[139.488357,36.380654],[139.489146,36.381234],[139.489369,36.381274],[139.489517,36.380911],[139.489484,36.380427],[139.489416,36.381248],[139.489526,36.381919],[139.490297,36.383201],[139.490348,36.383528],[139.489906,36.3839],[139.489711,36.383906],[139.488624,36.38505],[139.488644,36.385596],[139.489108,36.386305],[139.490007,36.38631],[139.489691,36.386141],[139.489956,36.386067],[139.490003,36.385933],[139.490348,36.385851],[139.4906,36.385999],[139.490706,36.386258],[139.490581,36.387505],[139.490106,36.387655],[139.48864,36.387671],[139.487976,36.38795],[139.487417,36.389181],[139.487919,36.389465],[139.488181,36.390419],[139.488391,36.390544],[139.488235,36.390417],[139.488336,36.390592],[139.488759,36.39043],[139.489848,36.389539],[139.490688,36.389385],[139.491554,36.389384],[139.492384,36.389598],[139.493202,36.389242],[139.493303,36.388686],[139.493168,36.388864],[139.493856,36.388258],[139.493902,36.388992],[139.494294,36.389635],[139.494752,36.39002],[139.495813,36.390354],[139.495891,36.390278],[139.495632,36.390574],[139.495509,36.391711],[139.495711,36.392007],[139.495623,36.39244],[139.495078,36.393062],[139.495125,36.393204],[139.495006,36.393242],[139.495008,36.393548],[139.495238,36.393361],[139.495129,36.393413],[139.495116,36.393254],[139.495124,36.39334],[139.495222,36.393273],[139.495682,36.393564],[139.495761,36.39407],[139.496032,36.394024],[139.496317,36.394215],[139.497015,36.394346],[139.496851,36.394269],[139.496933,36.394384],[139.496885,36.394255],[139.497252,36.394433],[139.497234,36.394018],[139.497453,36.393805],[139.497443,36.393427],[139.498006,36.392773],[139.498375,36.392582],[139.499487,36.392406],[139.500072,36.392073],[139.500432,36.391643],[139.501929,36.390866],[139.502663,36.390683],[139.503443,36.389837],[139.503488,36.388913],[139.503271,36.387746],[139.503133,36.387599],[139.503486,36.387264]],"type":"LineString"},"properties":{"_color":"#ff0000","_weight":3,"_dashArray":"3,6","name":"大坂峠～山王山～大坂山（往路）","_opacity":0.5}}],"bbox":[139.487417,36.380427,139.503526,36.394433],"type":"FeatureCollection"}
