{"features":[{"properties":{"name":"長林寺","駐車":"20台","_iconAnchor":[12,12],"_iconSize":[24,24],"_iconUrl":"symbols/Parking_Area.png"},"geometry":{"coordinates":[139.484739,36.327897],"type":"Point"},"type":"Feature"},{"properties":{"name":"久松1号橋","_iconAnchor":[12,12],"_iconSize":[24,24],"_iconUrl":"symbols/Bridge.png"},"geometry":{"type":"Point","coordinates":[139.4745,36.332606]},"type":"Feature"},{"properties":{"name":"富永公園登り口","_iconAnchor":[12,12],"_iconSize":[24,24],"_iconUrl":"symbols/Pin_Green.png"},"geometry":{"type":"Point","coordinates":[139.461972,36.332714]},"type":"Feature"},{"properties":{"name":"助戸東山HC起点","_iconAnchor":[12,12],"_iconSize":[24,24],"_iconUrl":"symbols/Pin_Green.png"},"geometry":{"coordinates":[139.462922,36.334208],"type":"Point"},"type":"Feature"},{"type":"Feature","properties":{"_iconUrl":"symbols/Summit.png","_iconSize":[24,24],"_iconAnchor":[12,12],"name":"どんどん山","標高":"73m"},"geometry":{"type":"Point","coordinates":[139.463525,36.334572]}},{"type":"Feature","properties":{"_iconUrl":"symbols/Scenic_Area.png","_iconSize":[24,24],"_iconAnchor":[12,12],"name":"雷電神社"},"geometry":{"coordinates":[139.465614,36.335858],"type":"Point"}},{"type":"Feature","properties":{"_iconUrl":"symbols/Summit.png","_iconSize":[24,24],"_iconAnchor":[12,12],"name":"助戸東山","標高":"116m"},"geometry":{"coordinates":[139.465994,36.339753],"type":"Point"}},{"geometry":{"type":"Point","coordinates":[139.4691,36.341236]},"properties":{"_iconSize":[24,24],"_iconUrl":"symbols/Pin_Green.png","name":"助戸東山HC終点","_iconAnchor":[12,12]},"type":"Feature"},{"type":"Feature","geometry":{"coordinates":[139.470192,36.341481],"type":"Point"},"properties":{"name":"東山展望台","_iconAnchor":[12,12],"_iconSize":[24,24],"_iconUrl":"symbols/Scenic_Area.png"}},{"geometry":{"type":"Point","coordinates":[139.473244,36.344461]},"properties":{"_iconAnchor":[12,12],"name":"千歳橋","_iconUrl":"symbols/Bridge.png","_iconSize":[24,24]},"type":"Feature"},{"type":"Feature","geometry":{"type":"Point","coordinates":[139.469756,36.345447]},"properties":{"_iconUrl":"symbols/Summit.png","_iconSize":[24,24],"_iconAnchor":[12,12],"name":"尻無山","標高":"63m"}},{"type":"Feature","properties":{"_iconSize":[24,24],"_iconUrl":"symbols/Bridge.png","name":"和田橋","_iconAnchor":[12,12]},"geometry":{"coordinates":[139.476883,36.34335],"type":"Point"}},{"geometry":{"type":"Point","coordinates":[139.480628,36.341664]},"properties":{"_iconSize":[24,24],"_iconUrl":"symbols/Pin_Green.png","name":"威怒神社","_iconAnchor":[12,12]},"type":"Feature"},{"type":"Feature","properties":{"name":"石灯籠","_iconAnchor":[12,12],"_iconSize":[24,24],"_iconUrl":"symbols/Pin_Green.png"},"geometry":{"type":"Point","coordinates":[139.483078,36.340586]}},{"properties":{"_iconUrl":"symbols/Pin_Green.png","_iconSize":[24,24],"_iconAnchor":[12,12],"name":"奥宮"},"geometry":{"coordinates":[139.485303,36.340903],"type":"Point"},"type":"Feature"},{"geometry":{"coordinates":[139.487156,36.341222],"type":"Point"},"properties":{"_iconAnchor":[12,12],"name":"御嶽山","標高":"190m","_iconUrl":"symbols/Summit.png","_iconSize":[24,24]},"type":"Feature"},{"properties":{"_iconUrl":"symbols/Pin_Green.png","_iconSize":[24,24],"_iconAnchor":[12,12],"name":"縦走路に合流"},"geometry":{"type":"Point","coordinates":[139.488742,36.338536]},"type":"Feature"},{"properties":{"name":"展望ベンチ","_iconAnchor":[12,12],"_iconSize":[24,24],"_iconUrl":"symbols/Scenic_Area.png"},"geometry":{"coordinates":[139.490239,36.333064],"type":"Point"},"type":"Feature"},{"type":"Feature","properties":{"_iconUrl":"symbols/Scenic_Area.png","_iconSize":[24,24],"_iconAnchor":[12,12],"name":"道了尊"},"geometry":{"type":"Point","coordinates":[139.486578,36.327183]}},{"properties":{"name":"助戸東山～尻無山～大月御嶽山","_opacity":0.5,"_color":"#ff0000","_weight":3,"_dashArray":"3,6"},"geometry":{"coordinates":[[139.484739,36.327898],[139.484536,36.327959],[139.483957,36.32765],[139.483317,36.328005],[139.481539,36.32705],[139.481231,36.326701],[139.478404,36.327212],[139.47811,36.327591],[139.478497,36.328627],[139.478015,36.329152],[139.47728,36.329411],[139.4765,36.329968],[139.476223,36.330013],[139.474585,36.329633],[139.474422,36.33003],[139.474581,36.332594],[139.473269,36.332826],[139.473247,36.333394],[139.467302,36.334639],[139.466824,36.334826],[139.466622,36.334778],[139.466145,36.334313],[139.466066,36.334372],[139.465992,36.334222],[139.464358,36.333474],[139.463044,36.33314],[139.462168,36.332617],[139.461911,36.332762],[139.462248,36.333349],[139.462134,36.333397],[139.462067,36.333256],[139.46207,36.333546],[139.463895,36.334764],[139.464821,36.334891],[139.465542,36.335876],[139.465635,36.335791],[139.46559,36.335927],[139.465414,36.33581],[139.465587,36.335828],[139.465621,36.335721],[139.465601,36.335899],[139.465515,36.335834],[139.465714,36.336427],[139.465749,36.337188],[139.46534,36.338021],[139.466002,36.339886],[139.466088,36.339821],[139.466859,36.340753],[139.46708,36.340864],[139.467368,36.341603],[139.467919,36.341671],[139.468387,36.341588],[139.469099,36.341236],[139.468729,36.341502],[139.468989,36.341271],[139.469994,36.34096],[139.470163,36.341499],[139.469937,36.341391],[139.470202,36.341472],[139.470059,36.340964],[139.470353,36.340787],[139.470581,36.340816],[139.471216,36.341311],[139.472026,36.344056],[139.4728,36.344173],[139.473245,36.344462],[139.471085,36.345435],[139.469951,36.345552],[139.469696,36.345407],[139.469233,36.345412],[139.468554,36.346089],[139.468346,36.346154],[139.468495,36.346143],[139.468415,36.346066],[139.469681,36.346167],[139.470805,36.346653],[139.471443,36.346516],[139.471961,36.346113],[139.472131,36.345502],[139.472029,36.345491],[139.472862,36.344626],[139.473356,36.344407],[139.473537,36.344588],[139.473731,36.344546],[139.474658,36.343745],[139.476791,36.34339],[139.477097,36.343195],[139.47789,36.343118],[139.478045,36.342934],[139.478081,36.342509],[139.478425,36.342193],[139.479235,36.341844],[139.480141,36.34185],[139.481953,36.34127],[139.482651,36.340872],[139.482652,36.340603],[139.48404,36.340311],[139.483933,36.340691],[139.484048,36.340575],[139.484021,36.340834],[139.484718,36.340765],[139.485018,36.340967],[139.485792,36.340875],[139.486141,36.341031],[139.486365,36.340913],[139.48712,36.34121],[139.487636,36.340905],[139.487898,36.340578],[139.487141,36.341236],[139.487888,36.340595],[139.488299,36.339215],[139.488774,36.338648],[139.488446,36.3378],[139.487663,36.337198],[139.48801,36.33616],[139.488433,36.335857],[139.48908,36.335745],[139.489273,36.335435],[139.489837,36.335088],[139.490213,36.334486],[139.489947,36.333672],[139.490251,36.332998],[139.490099,36.332958],[139.489182,36.333855],[139.488092,36.334356],[139.488087,36.333741],[139.487435,36.333469],[139.487655,36.332848],[139.487527,36.332476],[139.487623,36.331684],[139.487145,36.330497],[139.486995,36.330419],[139.486504,36.33055],[139.486621,36.330265],[139.486777,36.330219],[139.486965,36.329716],[139.487204,36.32952],[139.487388,36.328993],[139.487284,36.328707],[139.487399,36.327425],[139.486592,36.326868],[139.486606,36.327217],[139.486599,36.327041],[139.486466,36.327021],[139.486573,36.327208],[139.485735,36.328232],[139.485508,36.328271],[139.485124,36.328098],[139.484929,36.327736]],"type":"LineString"},"type":"Feature"}],"bbox":[139.461911,36.326701,139.490251,36.346653],"type":"FeatureCollection"}
