{"bbox":[139.431129,36.393125,139.456077,36.412637],"type":"FeatureCollection","features":[{"geometry":{"type":"Point","coordinates":[139.432289,36.408586]},"properties":{"name":"旧松田小学校","_iconAnchor":[12,12],"駐車":"5台","_iconSize":[24,24],"_iconUrl":"symbols/Parking_Area.png"},"type":"Feature"},{"properties":{"_iconUrl":"symbols/Bridge.png","_iconSize":[24,24],"_iconAnchor":[12,12],"name":"小寺橋"},"geometry":{"type":"Point","coordinates":[139.435892,36.412478]},"type":"Feature"},{"type":"Feature","geometry":{"coordinates":[139.435514,36.410483],"type":"Point"},"properties":{"_iconSize":[24,24],"_iconUrl":"symbols/Bridge.png","name":"敷鉄板の橋","_iconAnchor":[12,12]}},{"properties":{"_iconAnchor":[12,12],"name":"芝山物見","_iconUrl":"symbols/Summit.png","_iconSize":[24,24]},"geometry":{"type":"Point","coordinates":[139.4359,36.409183]},"type":"Feature"},{"type":"Feature","properties":{"_iconUrl":"symbols/Pin_Green.png","_iconSize":[24,24],"_iconAnchor":[12,12],"name":"神社跡"},"geometry":{"type":"Point","coordinates":[139.439825,36.410497]}},{"type":"Feature","geometry":{"coordinates":[139.451289,36.408597],"type":"Point"},"properties":{"_iconAnchor":[12,12],"name":"石祠","_iconUrl":"symbols/Pin_Green.png","_iconSize":[24,24]}},{"properties":{"_iconUrl":"symbols/Pin_Green.png","_iconSize":[24,24],"_iconAnchor":[12,12],"name":"松月山分岐"},"geometry":{"type":"Point","coordinates":[139.452597,36.406253]},"type":"Feature"},{"geometry":{"coordinates":[139.455456,36.400192],"type":"Point"},"properties":{"_iconUrl":"symbols/Summit.png","_iconSize":[24,24],"_iconAnchor":[12,12],"name":"大辻","標高":"388m"},"type":"Feature"},{"properties":{"_iconAnchor":[12,12],"name":"石仏","_iconUrl":"symbols/Pin_Green.png","_iconSize":[24,24]},"geometry":{"type":"Point","coordinates":[139.441058,36.396936]},"type":"Feature"},{"geometry":{"coordinates":[139.440358,36.398494],"type":"Point"},"properties":{"_iconAnchor":[12,12],"name":"釣り堀","_iconUrl":"symbols/Pin_Green.png","_iconSize":[24,24]},"type":"Feature"},{"geometry":{"type":"Point","coordinates":[139.436472,36.399294]},"properties":{"name":"石仏","_iconAnchor":[12,12],"_iconSize":[24,24],"_iconUrl":"symbols/Pin_Green.png"},"type":"Feature"},{"type":"Feature","properties":{"_iconSize":[24,24],"_iconUrl":"symbols/Pin_Green.png","name":"祠","_iconAnchor":[12,12]},"geometry":{"type":"Point","coordinates":[139.43515,36.399031]}},{"type":"Feature","properties":{"name":"神社石碑","_iconAnchor":[12,12],"_iconSize":[24,24],"_iconUrl":"symbols/Pin_Green.png"},"geometry":{"type":"Point","coordinates":[139.431286,36.402475]}},{"properties":{"_iconUrl":"symbols/Pin_Green.png","_iconSize":[24,24],"_iconAnchor":[12,12],"name":"石仏"},"geometry":{"coordinates":[139.431547,36.404622],"type":"Point"},"type":"Feature"},{"properties":{"_opacity":0.5,"name":"芝山物見～大辻（復路）","_dashArray":"3,6","_color":"#0000ff","_weight":3},"geometry":{"type":"LineString","coordinates":[[139.455455,36.400192],[139.455387,36.400131],[139.455483,36.400156],[139.455318,36.400192],[139.455474,36.400152],[139.456077,36.399389],[139.456066,36.399162],[139.45571,36.398853],[139.45546,36.398255],[139.454503,36.397279],[139.452847,36.396825],[139.452242,36.396842],[139.451148,36.396569],[139.450101,36.396598],[139.449423,36.396467],[139.448464,36.396583],[139.447898,36.396466],[139.447561,36.396121],[139.447542,36.395473],[139.447184,36.394719],[139.446741,36.394449],[139.445932,36.393291],[139.445543,36.393125],[139.445012,36.393336],[139.44417,36.394739],[139.443622,36.395143],[139.442776,36.395487],[139.442434,36.395283],[139.442249,36.395389],[139.442107,36.395815],[139.442214,36.395952],[139.441946,36.396075],[139.441758,36.396425],[139.441901,36.396363],[139.441638,36.396399],[139.441055,36.39685],[139.441083,36.396977],[139.440275,36.398138],[139.440374,36.398839],[139.438116,36.399019],[139.437456,36.399261],[139.436397,36.399319],[139.43651,36.399272],[139.436007,36.399344],[139.435165,36.399002],[139.435093,36.399134],[139.435165,36.399028],[139.433752,36.398222],[139.431205,36.398434],[139.431531,36.399281],[139.43141,36.399481],[139.431509,36.399428],[139.431129,36.401634],[139.43155,36.404678],[139.431508,36.404518],[139.431489,36.404852],[139.431763,36.405671],[139.431759,36.406813],[139.432199,36.407884],[139.431937,36.408482],[139.432151,36.408613]]},"type":"Feature"},{"type":"Feature","geometry":{"type":"LineString","coordinates":[[139.43229,36.408587],[139.432417,36.409034],[139.433519,36.410031],[139.434719,36.412587],[139.435618,36.41239],[139.435455,36.4124],[139.436304,36.412637],[139.435585,36.41239],[139.434741,36.412576],[139.433775,36.410484],[139.433995,36.410411],[139.435409,36.41053],[139.436438,36.409402],[139.436482,36.409128],[139.435839,36.409163],[139.435526,36.408999],[139.435975,36.409142],[139.435881,36.409307],[139.436463,36.409064],[139.436993,36.409261],[139.437483,36.409252],[139.437587,36.409896],[139.439221,36.41042],[139.439837,36.410481],[139.440401,36.409919],[139.441269,36.410208],[139.442024,36.410025],[139.442598,36.410134],[139.443391,36.409497],[139.444291,36.409726],[139.444529,36.409889],[139.446344,36.409381],[139.447308,36.408515],[139.448145,36.408389],[139.4484,36.40848],[139.449318,36.408399],[139.450893,36.408699],[139.45129,36.408596],[139.45132,36.408678],[139.451374,36.408351],[139.452347,36.407099],[139.4526,36.406213],[139.452024,36.405447],[139.451659,36.404436],[139.451814,36.403495],[139.452632,36.402761],[139.453146,36.401963],[139.455328,36.400438],[139.455429,36.400263]]},"properties":{"name":"芝山物見～大辻（往路）","_opacity":0.5,"_weight":3,"_color":"#ff0000","_dashArray":"3,6"}}]}
